{"type": "FeatureCollection", "features": [{"type": "Feature", "geometry": {"type": "Point", "coordinates": [11.97024, 44.43429]}, "properties": {"nome": "CASALE COCCHI 001 DIR", "anno": 2023, "dec": 2020, "esito": "Gas", "ecls": "gas", "scopo": "Sviluppo", "prof": 2945, "op": "SOCIETA' PADANA ENERGIA", "prov": "RA", "tm": "T", "titolo": "LONGANESI", "pdf": null}}, {"type": "Feature", "geometry": {"type": "Point", "coordinates": [11.91952, 44.37042]}, "properties": {"nome": "COTIGNOLA C 005 DIR ST", "anno": 2023, "dec": 2020, "esito": "Gas", "ecls": "gas", "scopo": "Stoccaggio", "prof": 924, "op": "EDISON STOCCAGGIO", "prov": "RA", "tm": "T", "titolo": null, "pdf": null}}, {"type": "Feature", "geometry": {"type": "Point", "coordinates": [14.24339, 42.93426]}, "properties": {"nome": "DONATA 004 DIR", "anno": 2023, "dec": 2020, "esito": "Gas", "ecls": "gas", "scopo": "Sviluppo", "prof": 1198, "op": "ENI", "prov": "ZB", "tm": "M", "titolo": "B.C 3.AS", "pdf": null}}, {"type": "Feature", "geometry": {"type": "Point", "coordinates": [16.11351, 40.40872]}, "properties": {"nome": "GORGOGLIONE 002 ST QUATER", "anno": 2023, "dec": 2020, "esito": "Gas", "ecls": "gas", "scopo": "Sviluppo", "prof": 6004, "op": "TOTALENERGIES EP ITALIA", "prov": "MT", "tm": "T", "titolo": "GORGOGLIONE", "pdf": null}}, {"type": "Feature", "geometry": {"type": "Point", "coordinates": [17.17274, 39.06139]}, "properties": {"nome": "HERA LACINIA 017 DIR A", "anno": 2023, "dec": 2020, "esito": "Gas", "ecls": "gas", "scopo": "Sviluppo", "prof": 1826, "op": "ENI", "prov": "ZD", "tm": "M", "titolo": "D.C 1.AG", "pdf": null}}, {"type": "Feature", "geometry": {"type": "Point", "coordinates": [17.17276, 39.06141]}, "properties": {"nome": "LUNA 41 DIR B", "anno": 2023, "dec": 2020, "esito": "Gas", "ecls": "gas", "scopo": "Sviluppo", "prof": 1833, "op": "ENI", "prov": "ZD", "tm": "M", "titolo": "D.C 1.AG", "pdf": null}}, {"type": "Feature", "geometry": {"type": "Point", "coordinates": [11.49889, 44.62044]}, "properties": {"nome": "MINERBIO 087 DIR", "anno": 2023, "dec": 2020, "esito": "Gas", "ecls": "gas", "scopo": "Stoccaggio", "prof": 1291, "op": "STOGIT", "prov": "BO", "tm": "T", "titolo": null, "pdf": null}}, {"type": "Feature", "geometry": {"type": "Point", "coordinates": [11.49883, 44.62046]}, "properties": {"nome": "MINERBIO 088 DIR", "anno": 2023, "dec": 2020, "esito": "Gas", "ecls": "gas", "scopo": "Stoccaggio", "prof": 1282, "op": "STOGIT", "prov": "BO", "tm": "T", "titolo": null, "pdf": null}}, {"type": "Feature", "geometry": {"type": "Point", "coordinates": [15.93673, 40.32713]}, "properties": {"nome": "MONTE ALPI 001 OR C", "anno": 2023, "dec": 2020, "esito": "Olio", "ecls": "olio", "scopo": "Sviluppo", "prof": 3686, "op": "ENI", "prov": "PZ", "tm": "T", "titolo": "VAL D'AGRI", "pdf": null}}, {"type": "Feature", "geometry": {"type": "Point", "coordinates": [12.84763, 44.68844]}, "properties": {"nome": "PANDORA 002 DIR B", "anno": 2023, "dec": 2020, "esito": "Gas", "ecls": "gas", "scopo": "Sviluppo", "prof": 2722, "op": "ENI", "prov": "ZA", "tm": "M", "titolo": "A.C 33.AG", "pdf": null}}, {"type": "Feature", "geometry": {"type": "Point", "coordinates": [9.70971, 45.31391]}, "properties": {"nome": "RIPALTA 027 DIR A", "anno": 2023, "dec": 2020, "esito": "Gas", "ecls": "gas", "scopo": "Stoccaggio", "prof": 1567, "op": "STOGIT", "prov": "CR", "tm": "T", "titolo": null, "pdf": null}}, {"type": "Feature", "geometry": {"type": "Point", "coordinates": [12.62815, 44.30565]}, "properties": {"nome": "ARIANNA 005 DIR A", "anno": 2022, "dec": 2020, "esito": "Gas", "ecls": "gas", "scopo": "Sviluppo", "prof": 4168, "op": "ENI", "prov": "ZA", "tm": "M", "titolo": "CERVIA MARE", "pdf": null}}, {"type": "Feature", "geometry": {"type": "Point", "coordinates": [13.00129, 44.13102]}, "properties": {"nome": "BASIL 008 DIR D", "anno": 2022, "dec": 2020, "esito": "Gas", "ecls": "gas", "scopo": "Sviluppo", "prof": 2443, "op": "ENI", "prov": "ZA", "tm": "M", "titolo": "A.C 12.AG", "pdf": null}}, {"type": "Feature", "geometry": {"type": "Point", "coordinates": [14.33569, 43.59992]}, "properties": {"nome": "BONACCIA NW 003 DIR A", "anno": 2022, "dec": 2020, "esito": "Gas", "ecls": "gas", "scopo": "Sviluppo", "prof": 1162, "op": "ENI", "prov": "ZB", "tm": "M", "titolo": "B.C 17.TO", "pdf": null}}, {"type": "Feature", "geometry": {"type": "Point", "coordinates": [11.96029, 44.43799]}, "properties": {"nome": "LONGANESI 002 DIR", "anno": 2022, "dec": 2020, "esito": "Gas", "ecls": "gas", "scopo": "Sviluppo", "prof": 2856, "op": "SOCIETA' PADANA ENERGIA", "prov": "RA", "tm": "T", "titolo": "LONGANESI", "pdf": null}}, {"type": "Feature", "geometry": {"type": "Point", "coordinates": [11.95089, 44.43862]}, "properties": {"nome": "LONGANESI 003 DIR", "anno": 2022, "dec": 2020, "esito": "Gas", "ecls": "gas", "scopo": "Sviluppo", "prof": 2867, "op": "SOCIETA' PADANA ENERGIA", "prov": "RA", "tm": "T", "titolo": "LONGANESI", "pdf": null}}, {"type": "Feature", "geometry": {"type": "Point", "coordinates": [11.89792, 44.79875]}, "properties": {"nome": "SABBIONCELLO 054 OR", "anno": 2022, "dec": 2020, "esito": "Gas", "ecls": "gas", "scopo": "Stoccaggio", "prof": 1156, "op": "STOGIT", "prov": "FE", "tm": "T", "titolo": null, "pdf": null}}, {"type": "Feature", "geometry": {"type": "Point", "coordinates": [11.94686, 44.41955]}, "properties": {"nome": "SAN POTITO 001 DIR ST", "anno": 2022, "dec": 2020, "esito": "Gas", "ecls": "gas", "scopo": "Sviluppo", "prof": 1950, "op": "EDISON STOCCAGGIO", "prov": "RA", "tm": "T", "titolo": "LONGANESI", "pdf": null}}, {"type": "Feature", "geometry": {"type": "Point", "coordinates": [13.11373, 44.17033]}, "properties": {"nome": "ANNALISA 004 DIR B", "anno": 2021, "dec": 2020, "esito": "Gas", "ecls": "gas", "scopo": "Sviluppo", "prof": 3511, "op": "ENI", "prov": "ZA", "tm": "M", "titolo": "A.C 32.AG", "pdf": null}}, {"type": "Feature", "geometry": {"type": "Point", "coordinates": [13.86358, 43.82678]}, "properties": {"nome": "CALIPSO 003 DIR B", "anno": 2021, "dec": 2020, "esito": "Gas", "ecls": "gas", "scopo": "Sviluppo", "prof": 1285, "op": "ENI", "prov": "ZB", "tm": "M", "titolo": "B.C 14.AS", "pdf": null}}, {"type": "Feature", "geometry": {"type": "Point", "coordinates": [12.2215, 45.87206]}, "properties": {"nome": "CONEGLIANO 002 DIR ST", "anno": 2021, "dec": 2020, "esito": "Gas", "ecls": "gas", "scopo": "Stoccaggio", "prof": 2226, "op": "EDISON STOCCAGGIO", "prov": "TV", "tm": "T", "titolo": null, "pdf": null}}, {"type": "Feature", "geometry": {"type": "Point", "coordinates": [9.69869, 45.31186]}, "properties": {"nome": "RIPALTA 005 DIR B", "anno": 2021, "dec": 2020, "esito": "Gas", "ecls": "gas", "scopo": "Stoccaggio", "prof": 1559, "op": "STOGIT", "prov": "CR", "tm": "T", "titolo": null, "pdf": null}}, {"type": "Feature", "geometry": {"type": "Point", "coordinates": [9.70377, 45.3124]}, "properties": {"nome": "RIPALTA 052 DIR A", "anno": 2021, "dec": 2020, "esito": "Gas", "ecls": "gas", "scopo": "Stoccaggio", "prof": 1562, "op": "Sconosciuto", "prov": "CR", "tm": "T", "titolo": null, "pdf": null}}, {"type": "Feature", "geometry": {"type": "Point", "coordinates": [9.70464, 45.31361]}, "properties": {"nome": "RIPALTA 054 DIR A", "anno": 2021, "dec": 2020, "esito": "Gas", "ecls": "gas", "scopo": "Stoccaggio", "prof": 1564, "op": "Sconosciuto", "prov": "CR", "tm": "T", "titolo": null, "pdf": null}}, {"type": "Feature", "geometry": {"type": "Point", "coordinates": [11.90778, 44.79474]}, "properties": {"nome": "SABBIONCELLO 031 DIR A", "anno": 2021, "dec": 2020, "esito": "Gas", "ecls": "gas", "scopo": "Stoccaggio", "prof": 1170, "op": "STOGIT", "prov": "FE", "tm": "T", "titolo": null, "pdf": null}}, {"type": "Feature", "geometry": {"type": "Point", "coordinates": [13.04443, 44.11639]}, "properties": {"nome": "BRENDA 002 DIR B", "anno": 2020, "dec": 2020, "esito": "Gas", "ecls": "gas", "scopo": "Sviluppo", "prof": 2196, "op": "ENI", "prov": "ZA", "tm": "M", "titolo": "A.C 12.AG", "pdf": null}}, {"type": "Feature", "geometry": {"type": "Point", "coordinates": [9.96572, 44.99833]}, "properties": {"nome": "CORTEMAGGIORE 106 DIR ST", "anno": 2020, "dec": 2020, "esito": "Gas", "ecls": "gas", "scopo": "Stoccaggio", "prof": 1564, "op": "AGIP", "prov": "PC", "tm": "T", "titolo": "CORTEMAGGIORE", "pdf": null}}, {"type": "Feature", "geometry": {"type": "Point", "coordinates": [9.96572, 44.99833]}, "properties": {"nome": "CORTEMAGGIORE 107 DIR ST", "anno": 2020, "dec": 2020, "esito": "Gas", "ecls": "gas", "scopo": "Stoccaggio", "prof": 1591, "op": "AGIP", "prov": "PC", "tm": "T", "titolo": "CORTEMAGGIORE", "pdf": null}}, {"type": "Feature", "geometry": {"type": "Point", "coordinates": [9.96572, 44.99833]}, "properties": {"nome": "CORTEMAGGIORE 108 DIR ST", "anno": 2020, "dec": 2020, "esito": "Gas", "ecls": "gas", "scopo": "Stoccaggio", "prof": 1568, "op": "AGIP", "prov": "PC", "tm": "T", "titolo": "CORTEMAGGIORE", "pdf": null}}, {"type": "Feature", "geometry": {"type": "Point", "coordinates": [15.90453, 40.31572]}, "properties": {"nome": "MONTE ALPI 005 OR A", "anno": 2020, "dec": 2020, "esito": "Olio prevalente e gas", "ecls": "misto", "scopo": "Sviluppo", "prof": 4102, "op": "AGIP", "prov": "PZ", "tm": "T", "titolo": "VAL D'AGRI", "pdf": null}}, {"type": "Feature", "geometry": {"type": "Point", "coordinates": [15.93395, 40.30493]}, "properties": {"nome": "MONTE ALPI 006 OR A", "anno": 2020, "dec": 2020, "esito": "Manifestazioni di gas ed olio", "ecls": "misto", "scopo": "Sviluppo", "prof": 4624, "op": "ENI", "prov": "PZ", "tm": "T", "titolo": "VAL D'AGRI", "pdf": null}}, {"type": "Feature", "geometry": {"type": "Point", "coordinates": [13.08056, 44.23383]}, "properties": {"nome": "ANNABELLA 006 DIR A", "anno": 2019, "dec": 2010, "esito": "Gas", "ecls": "gas", "scopo": "Sviluppo", "prof": 3481, "op": "ENI", "prov": "ZA", "tm": "M", "titolo": "A.C 18.AG", "pdf": null}}, {"type": "Feature", "geometry": {"type": "Point", "coordinates": [13.0849, 44.2344]}, "properties": {"nome": "ANNABELLA 009 DIR B", "anno": 2019, "dec": 2010, "esito": "Gas", "ecls": "gas", "scopo": "Sviluppo", "prof": 3454, "op": "ENI", "prov": "ZA", "tm": "M", "titolo": "A.C 18.AG", "pdf": null}}, {"type": "Feature", "geometry": {"type": "Point", "coordinates": [12.21547, 45.85754]}, "properties": {"nome": "CONEGLIANO 011 DIR ST 2", "anno": 2019, "dec": 2010, "esito": "Gas", "ecls": "gas", "scopo": "Stoccaggio", "prof": 1498, "op": "EDISON STOCCAGGIO", "prov": "TV", "tm": "T", "titolo": null, "pdf": null}}, {"type": "Feature", "geometry": {"type": "Point", "coordinates": [9.48128, 45.28669]}, "properties": {"nome": "CORNEGLIANO B 002 DIR B", "anno": 2019, "dec": 2010, "esito": "Gas", "ecls": "gas", "scopo": "Stoccaggio", "prof": 1432, "op": "ITAL GAS STORAGE", "prov": "MI", "tm": "T", "titolo": "CAVIAGA", "pdf": null}}, {"type": "Feature", "geometry": {"type": "Point", "coordinates": [9.48119, 45.28705]}, "properties": {"nome": "CORNEGLIANO B 007 DIR B", "anno": 2019, "dec": 2010, "esito": "Gas", "ecls": "gas", "scopo": "Stoccaggio", "prof": 1447, "op": "ITAL GAS STORAGE", "prov": "MI", "tm": "T", "titolo": "CAVIAGA", "pdf": null}}, {"type": "Feature", "geometry": {"type": "Point", "coordinates": [9.97606, 44.99625]}, "properties": {"nome": "CORTEMAGGIORE 158", "anno": 2019, "dec": 2010, "esito": "Gas", "ecls": "gas", "scopo": "Stoccaggio", "prof": 1549, "op": "STOGIT", "prov": "PC", "tm": "T", "titolo": "CORTEMAGGIORE", "pdf": null}}, {"type": "Feature", "geometry": {"type": "Point", "coordinates": [9.97604, 44.99621]}, "properties": {"nome": "CORTEMAGGIORE 159", "anno": 2019, "dec": 2010, "esito": "Gas", "ecls": "gas", "scopo": "Stoccaggio", "prof": 1552, "op": "STOGIT", "prov": "PC", "tm": "T", "titolo": "CORTEMAGGIORE", "pdf": null}}, {"type": "Feature", "geometry": {"type": "Point", "coordinates": [14.23337, 42.93851]}, "properties": {"nome": "EMILIO 009 DIR B", "anno": 2019, "dec": 2010, "esito": "Gas", "ecls": "gas", "scopo": "Sviluppo", "prof": 2889, "op": "ENI", "prov": "ZB", "tm": "M", "titolo": "B.C 3.AS", "pdf": null}}, {"type": "Feature", "geometry": {"type": "Point", "coordinates": [13.81094, 44.04802]}, "properties": {"nome": "BARBARA F 058 DIR C", "anno": 2018, "dec": 2010, "esito": "Gas", "ecls": "gas", "scopo": "Sviluppo", "prof": 1489, "op": "ENI", "prov": "ZA", "tm": "M", "titolo": "A.C 7.AS", "pdf": null}}, {"type": "Feature", "geometry": {"type": "Point", "coordinates": [13.82557, 44.04577]}, "properties": {"nome": "BARBARA F 059 DIR C", "anno": 2018, "dec": 2010, "esito": "Gas", "ecls": "gas", "scopo": "Sviluppo", "prof": 1186, "op": "ENI", "prov": "ZA", "tm": "M", "titolo": "A.C 7.AS", "pdf": null}}, {"type": "Feature", "geometry": {"type": "Point", "coordinates": [13.8137, 44.03992]}, "properties": {"nome": "BARBARA F 060 DIR B", "anno": 2018, "dec": 2010, "esito": "Gas", "ecls": "gas", "scopo": "Sviluppo", "prof": 1324, "op": "ENI", "prov": "ZA", "tm": "M", "titolo": "A.C 7.AS", "pdf": null}}, {"type": "Feature", "geometry": {"type": "Point", "coordinates": [13.81483, 44.04239]}, "properties": {"nome": "BARBARA F 064 DIR A", "anno": 2018, "dec": 2010, "esito": "Gas", "ecls": "gas", "scopo": "Sviluppo", "prof": 1501, "op": "ENI", "prov": "ZA", "tm": "M", "titolo": "A.C 7.AS", "pdf": null}}, {"type": "Feature", "geometry": {"type": "Point", "coordinates": [13.80823, 44.04879]}, "properties": {"nome": "BARBARA F 065 DIR B", "anno": 2018, "dec": 2010, "esito": "Gas", "ecls": "gas", "scopo": "Sviluppo", "prof": 1342, "op": "ENI", "prov": "ZA", "tm": "M", "titolo": "A.C 7.AS", "pdf": null}}, {"type": "Feature", "geometry": {"type": "Point", "coordinates": [13.80232, 44.05532]}, "properties": {"nome": "BARBARA F 068 DIR B", "anno": 2018, "dec": 2010, "esito": "Gas", "ecls": "gas", "scopo": "Sviluppo", "prof": 1336, "op": "ENI", "prov": "ZA", "tm": "M", "titolo": "A.C 7.AS", "pdf": null}}, {"type": "Feature", "geometry": {"type": "Point", "coordinates": [13.65838, 44.10584]}, "properties": {"nome": "BARBARA NORD OVEST 005 DIR B", "anno": 2018, "dec": 2010, "esito": "Gas", "ecls": "gas", "scopo": "Sviluppo", "prof": 1748, "op": "ENI", "prov": "ZA", "tm": "M", "titolo": "A.C 7.AS", "pdf": null}}, {"type": "Feature", "geometry": {"type": "Point", "coordinates": [13.64901, 44.10821]}, "properties": {"nome": "BARBARA NORD OVEST 009 DIR A", "anno": 2018, "dec": 2010, "esito": "Gas", "ecls": "gas", "scopo": "Sviluppo", "prof": 1650, "op": "ENI", "prov": "ZA", "tm": "M", "titolo": "A.C 7.AS", "pdf": null}}, {"type": "Feature", "geometry": {"type": "Point", "coordinates": [12.64036, 44.30102]}, "properties": {"nome": "CERVIA 037 DIR", "anno": 2018, "dec": 2010, "esito": "Gas", "ecls": "gas", "scopo": "Sviluppo", "prof": 4240, "op": "ENI", "prov": "ZA", "tm": "M", "titolo": "CERVIA MARE", "pdf": null}}, {"type": "Feature", "geometry": {"type": "Point", "coordinates": [12.63566, 44.30362]}, "properties": {"nome": "CERVIA 038 DIR A", "anno": 2018, "dec": 2010, "esito": "Gas", "ecls": "gas", "scopo": "Sviluppo", "prof": 4087, "op": "ENI", "prov": "ZA", "tm": "M", "titolo": "CERVIA MARE", "pdf": null}}, {"type": "Feature", "geometry": {"type": "Point", "coordinates": [11.58538, 44.59304]}, "properties": {"nome": "PODERE MAIAR 001 DIR", "anno": 2018, "dec": 2010, "esito": "Gas", "ecls": "gas", "scopo": "Esplorativo", "prof": 1331, "op": "PO VALLEY OPERATIONS PTY", "prov": "BO", "tm": "T", "titolo": "SELVA MALVEZZI", "pdf": null}}, {"type": "Feature", "geometry": {"type": "Point", "coordinates": [13.78974, 44.06795]}, "properties": {"nome": "BARBARA C 023 DIR A", "anno": 2017, "dec": 2010, "esito": "Gas", "ecls": "gas", "scopo": "Sviluppo", "prof": 1460, "op": "ENI", "prov": "ZA", "tm": "M", "titolo": "A.C 7.AS", "pdf": null}}, {"type": "Feature", "geometry": {"type": "Point", "coordinates": [9.46397, 45.28697]}, "properties": {"nome": "CORNEGLIANO A 002 DIR", "anno": 2017, "dec": 2010, "esito": "Gas", "ecls": "gas", "scopo": "Stoccaggio", "prof": 1399, "op": "ITAL GAS STORAGE", "prov": "MI", "tm": "T", "titolo": "CAVIAGA", "pdf": null}}, {"type": "Feature", "geometry": {"type": "Point", "coordinates": [9.46398, 45.28689]}, "properties": {"nome": "CORNEGLIANO A 003 DIR", "anno": 2017, "dec": 2010, "esito": "Gas", "ecls": "gas", "scopo": "Stoccaggio", "prof": 1455, "op": "ITAL GAS STORAGE", "prov": "MI", "tm": "T", "titolo": "CAVIAGA", "pdf": null}}, {"type": "Feature", "geometry": {"type": "Point", "coordinates": [9.48067, 45.2871]}, "properties": {"nome": "CORNEGLIANO A 004 DIR", "anno": 2017, "dec": 2010, "esito": "Non produttivo", "ecls": "sterile", "scopo": "Stoccaggio", "prof": 1440, "op": "ITAL GAS STORAGE", "prov": "MI", "tm": "T", "titolo": "CAVIAGA", "pdf": null}}, {"type": "Feature", "geometry": {"type": "Point", "coordinates": [9.46402, 45.28675]}, "properties": {"nome": "CORNEGLIANO A 005 DIR", "anno": 2017, "dec": 2010, "esito": "Gas", "ecls": "gas", "scopo": "Stoccaggio", "prof": 1421, "op": "ITAL GAS STORAGE", "prov": "MI", "tm": "T", "titolo": "CAVIAGA", "pdf": null}}, {"type": "Feature", "geometry": {"type": "Point", "coordinates": [9.46404, 45.28668]}, "properties": {"nome": "CORNEGLIANO A 006 DIR", "anno": 2017, "dec": 2010, "esito": "Gas", "ecls": "gas", "scopo": "Stoccaggio", "prof": 1420, "op": "ITAL GAS STORAGE", "prov": "MI", "tm": "T", "titolo": "CAVIAGA", "pdf": null}}, {"type": "Feature", "geometry": {"type": "Point", "coordinates": [9.46405, 45.28661]}, "properties": {"nome": "CORNEGLIANO A 007 DIR", "anno": 2017, "dec": 2010, "esito": "Gas", "ecls": "gas", "scopo": "Stoccaggio", "prof": 1405, "op": "ITAL GAS STORAGE", "prov": "MI", "tm": "T", "titolo": "CAVIAGA", "pdf": null}}, {"type": "Feature", "geometry": {"type": "Point", "coordinates": [9.48126, 45.28676]}, "properties": {"nome": "CORNEGLIANO B 003 DIR", "anno": 2017, "dec": 2010, "esito": "Non produttivo", "ecls": "sterile", "scopo": "Stoccaggio", "prof": 1467, "op": "ITAL GAS STORAGE", "prov": "MI", "tm": "T", "titolo": "CAVIAGA", "pdf": null}}, {"type": "Feature", "geometry": {"type": "Point", "coordinates": [9.48123, 45.28691]}, "properties": {"nome": "CORNEGLIANO B 005 DIR", "anno": 2017, "dec": 2010, "esito": "Gas", "ecls": "gas", "scopo": "Stoccaggio", "prof": 1424, "op": "ITAL GAS STORAGE", "prov": "MI", "tm": "T", "titolo": "CAVIAGA", "pdf": null}}, {"type": "Feature", "geometry": {"type": "Point", "coordinates": [9.48121, 45.28698]}, "properties": {"nome": "CORNEGLIANO B 006 DIR", "anno": 2017, "dec": 2010, "esito": "Gas", "ecls": "gas", "scopo": "Stoccaggio", "prof": 1464, "op": "ITAL GAS STORAGE", "prov": "MI", "tm": "T", "titolo": "CAVIAGA", "pdf": null}}, {"type": "Feature", "geometry": {"type": "Point", "coordinates": [9.96561, 44.9983]}, "properties": {"nome": "CORTEMAGGIORE 109 DIR A", "anno": 2017, "dec": 2010, "esito": "Gas", "ecls": "gas", "scopo": "Stoccaggio", "prof": 1568, "op": "STOGIT", "prov": "PC", "tm": "T", "titolo": "CORTEMAGGIORE", "pdf": null}}, {"type": "Feature", "geometry": {"type": "Point", "coordinates": [9.96484, 44.99856]}, "properties": {"nome": "CORTEMAGGIORE 112 DIR A", "anno": 2017, "dec": 2010, "esito": "Gas", "ecls": "gas", "scopo": "Stoccaggio", "prof": 1573, "op": "STOGIT", "prov": "PC", "tm": "T", "titolo": "CORTEMAGGIORE", "pdf": null}}, {"type": "Feature", "geometry": {"type": "Point", "coordinates": [15.77827, 45.36309]}, "properties": {"nome": "MOIRAGO 001 DIR", "anno": 2017, "dec": 2010, "esito": "Non produttivo", "ecls": "sterile", "scopo": "Esplorativo", "prof": 4406, "op": "APENNINE ENERGY", "prov": "PZ", "tm": "T", "titolo": null, "pdf": null}}, {"type": "Feature", "geometry": {"type": "Point", "coordinates": [15.93392, 40.30486]}, "properties": {"nome": "MONTE ALPI 007 OR A", "anno": 2017, "dec": 2010, "esito": "Olio prevalente e gas", "ecls": "misto", "scopo": "Sviluppo", "prof": 2921, "op": "ENI", "prov": "PZ", "tm": "T", "titolo": "VAL D'AGRI", "pdf": null}}, {"type": "Feature", "geometry": {"type": "Point", "coordinates": [15.87716, 40.33807]}, "properties": {"nome": "MONTE ENOC 005 OR C", "anno": 2017, "dec": 2010, "esito": "Olio", "ecls": "olio", "scopo": "Sviluppo", "prof": 3052, "op": "ENI", "prov": "PZ", "tm": "T", "titolo": "VAL D'AGRI", "pdf": null}}, {"type": "Feature", "geometry": {"type": "Point", "coordinates": [11.94684, 44.41954]}, "properties": {"nome": "SAN POTITO A 002 DIR", "anno": 2017, "dec": 2010, "esito": "Gas", "ecls": "gas", "scopo": "Stoccaggio", "prof": 1914, "op": "EDISON STOCCAGGIO", "prov": "RA", "tm": "T", "titolo": "LONGANESI", "pdf": null}}, {"type": "Feature", "geometry": {"type": "Point", "coordinates": [12.01903, 44.68564]}, "properties": {"nome": "TRAVA 002 DIR", "anno": 2017, "dec": 2010, "esito": "Gas", "ecls": "gas", "scopo": "Esplorativo", "prof": 1071, "op": "ALEANNA RESOURCES", "prov": "FE", "tm": "T", "titolo": null, "pdf": null}}, {"type": "Feature", "geometry": {"type": "Point", "coordinates": [13.78014, 44.06966]}, "properties": {"nome": "BARBARA C 015 DIR B", "anno": 2016, "dec": 2010, "esito": "Gas", "ecls": "gas", "scopo": "Sviluppo", "prof": 1463, "op": "ENI", "prov": "ZA", "tm": "M", "titolo": "A.C 7.AS", "pdf": null}}, {"type": "Feature", "geometry": {"type": "Point", "coordinates": [13.78436, 44.06795]}, "properties": {"nome": "BARBARA C 025 DIR A", "anno": 2016, "dec": 2010, "esito": "Gas", "ecls": "gas", "scopo": "Sviluppo", "prof": 1293, "op": "ENI", "prov": "ZA", "tm": "M", "titolo": "A.C 7.AS", "pdf": null}}, {"type": "Feature", "geometry": {"type": "Point", "coordinates": [14.34508, 43.59652]}, "properties": {"nome": "BONACCIA NW 002 DIR", "anno": 2016, "dec": 2010, "esito": "Gas", "ecls": "gas", "scopo": "Sviluppo", "prof": 1240, "op": "ENI", "prov": "ZB", "tm": "M", "titolo": "B.C 17.TO", "pdf": null}}, {"type": "Feature", "geometry": {"type": "Point", "coordinates": [9.97312, 45.29101]}, "properties": {"nome": "BORDOLANO 001 DIR A", "anno": 2016, "dec": 2010, "esito": "Non produttivo", "ecls": "sterile", "scopo": "Monitoraggio", "prof": 1860, "op": "STOGIT", "prov": "CR", "tm": "T", "titolo": "CIGNONE", "pdf": null}}, {"type": "Feature", "geometry": {"type": "Point", "coordinates": [12.63424, 44.30274]}, "properties": {"nome": "CERVIA 023 DIR A", "anno": 2016, "dec": 2010, "esito": "Gas", "ecls": "gas", "scopo": "Sviluppo", "prof": 4391, "op": "ENI", "prov": "ZA", "tm": "M", "titolo": "CERVIA MARE", "pdf": null}}, {"type": "Feature", "geometry": {"type": "Point", "coordinates": [9.46395, 45.28704]}, "properties": {"nome": "CORNEGLIANO A 001", "anno": 2016, "dec": 2010, "esito": "Gas", "ecls": "gas", "scopo": "Stoccaggio", "prof": 1450, "op": "ITAL GAS STORAGE", "prov": "MI", "tm": "T", "titolo": "CAVIAGA", "pdf": null}}, {"type": "Feature", "geometry": {"type": "Point", "coordinates": [9.4813, 45.28662]}, "properties": {"nome": "CORNEGLIANO B 001", "anno": 2016, "dec": 2010, "esito": "Gas", "ecls": "gas", "scopo": "Stoccaggio", "prof": 1459, "op": "ITAL GAS STORAGE", "prov": "MI", "tm": "T", "titolo": "CAVIAGA", "pdf": null}}, {"type": "Feature", "geometry": {"type": "Point", "coordinates": [9.48128, 45.28669]}, "properties": {"nome": "CORNEGLIANO B 002 DIR", "anno": 2016, "dec": 2010, "esito": "Non produttivo", "ecls": "sterile", "scopo": "Stoccaggio", "prof": 898, "op": "ITAL GAS STORAGE", "prov": "MI", "tm": "T", "titolo": "CAVIAGA", "pdf": null}}, {"type": "Feature", "geometry": {"type": "Point", "coordinates": [9.48124, 45.28684]}, "properties": {"nome": "CORNEGLIANO B 004 DIR", "anno": 2016, "dec": 2010, "esito": "Manifestazioni di gas", "ecls": "gas", "scopo": "Stoccaggio", "prof": 1800, "op": "ITAL GAS STORAGE", "prov": "MI", "tm": "T", "titolo": "CAVIAGA", "pdf": null}}, {"type": "Feature", "geometry": {"type": "Point", "coordinates": [9.48119, 45.28705]}, "properties": {"nome": "CORNEGLIANO B 007 DIR", "anno": 2016, "dec": 2010, "esito": "Non produttivo", "ecls": "sterile", "scopo": "Stoccaggio", "prof": 864, "op": "ITAL GAS STORAGE", "prov": "MI", "tm": "T", "titolo": "CAVIAGA", "pdf": null}}, {"type": "Feature", "geometry": {"type": "Point", "coordinates": [12.47982, 44.2336]}, "properties": {"nome": "MORENA 001 DIR A", "anno": 2016, "dec": 2010, "esito": "Gas", "ecls": "gas", "scopo": "Sviluppo", "prof": 1988, "op": "ENI", "prov": "ZA", "tm": "M", "titolo": "A.C 28.EA", "pdf": "https://www.videpi.com/deposito/pozzi/profili/pdf/morena_001_dir_a.pdf"}}, {"type": "Feature", "geometry": {"type": "Point", "coordinates": [15.70239, 40.44158]}, "properties": {"nome": "PERGOLA 001", "anno": 2016, "dec": 2010, "esito": "Olio", "ecls": "olio", "scopo": "Esplorativo", "prof": 3781, "op": "ENI", "prov": "PZ", "tm": "T", "titolo": "VAL D'AGRI", "pdf": null}}, {"type": "Feature", "geometry": {"type": "Point", "coordinates": [12.6997, 44.2166]}, "properties": {"nome": "ANEMONE 012 DIR B", "anno": 2015, "dec": 2010, "esito": "Gas", "ecls": "gas", "scopo": "Sviluppo", "prof": 3105, "op": "ENI", "prov": "ZA", "tm": "M", "titolo": "A.C 5.AV", "pdf": null}}, {"type": "Feature", "geometry": {"type": "Point", "coordinates": [13.11373, 44.17033]}, "properties": {"nome": "ANNALISA 004 DIR A", "anno": 2015, "dec": 2010, "esito": "Gas", "ecls": "gas", "scopo": "Sviluppo", "prof": 3520, "op": "ENI", "prov": "ZA", "tm": "M", "titolo": "A.C 32.AG", "pdf": null}}, {"type": "Feature", "geometry": {"type": "Point", "coordinates": [13.81559, 44.03875]}, "properties": {"nome": "BARBARA D 028 DIR B", "anno": 2015, "dec": 2010, "esito": "Gas", "ecls": "gas", "scopo": "Sviluppo", "prof": 1277, "op": "ENI", "prov": "ZA", "tm": "M", "titolo": "A.C 7.AS", "pdf": null}}, {"type": "Feature", "geometry": {"type": "Point", "coordinates": [13.81034, 44.02684]}, "properties": {"nome": "BARBARA D 037 DIR B", "anno": 2015, "dec": 2010, "esito": "Gas", "ecls": "gas", "scopo": "Sviluppo", "prof": 1447, "op": "ENI", "prov": "ZA", "tm": "M", "titolo": "A.C 7.AS", "pdf": null}}, {"type": "Feature", "geometry": {"type": "Point", "coordinates": [13.81152, 44.03413]}, "properties": {"nome": "BARBARA D 040 DIR A", "anno": 2015, "dec": 2010, "esito": "nan", "ecls": "altro", "scopo": "Sviluppo", "prof": 1488, "op": "ENI", "prov": "ZA", "tm": "M", "titolo": "A.C 7.AS", "pdf": null}}, {"type": "Feature", "geometry": {"type": "Point", "coordinates": [14.33299, 43.60183]}, "properties": {"nome": "BONACCIA NW 001 DIR", "anno": 2015, "dec": 2010, "esito": "Gas", "ecls": "gas", "scopo": "Sviluppo", "prof": 1316, "op": "ENI", "prov": "ZB", "tm": "M", "titolo": "B.C 17.TO", "pdf": null}}, {"type": "Feature", "geometry": {"type": "Point", "coordinates": [14.34024, 43.60011]}, "properties": {"nome": "BONACCIA NW 003 DIR", "anno": 2015, "dec": 2010, "esito": "Gas", "ecls": "gas", "scopo": "Sviluppo", "prof": 1331, "op": "ENI", "prov": "ZA", "tm": "M", "titolo": "B.C 17.TO", "pdf": null}}, {"type": "Feature", "geometry": {"type": "Point", "coordinates": [12.42885, 45.79895]}, "properties": {"nome": "CASCINA DAGA 001 DIR", "anno": 2015, "dec": 2010, "esito": "Non produttivo", "ecls": "sterile", "scopo": "Esplorativo", "prof": 1998, "op": "APENNINE ENERGY", "prov": "TV", "tm": "T", "titolo": null, "pdf": null}}, {"type": "Feature", "geometry": {"type": "Point", "coordinates": [14.03119, 43.808]}, "properties": {"nome": "CLARA NW 001 DIR", "anno": 2015, "dec": 2010, "esito": "Gas", "ecls": "gas", "scopo": "Sviluppo", "prof": 1174, "op": "ENI", "prov": "ZB", "tm": "M", "titolo": "B.C 13.AS", "pdf": null}}, {"type": "Feature", "geometry": {"type": "Point", "coordinates": [14.01171, 43.79934]}, "properties": {"nome": "CLARA NW 002 DIR", "anno": 2015, "dec": 2010, "esito": "Gas", "ecls": "gas", "scopo": "Sviluppo", "prof": 1297, "op": "ENI", "prov": "ZB", "tm": "M", "titolo": "B.C 13.AS", "pdf": null}}, {"type": "Feature", "geometry": {"type": "Point", "coordinates": [14.01104, 43.79513]}, "properties": {"nome": "CLARA NW 003 DIR", "anno": 2015, "dec": 2010, "esito": "Gas", "ecls": "gas", "scopo": "Sviluppo", "prof": 1306, "op": "ENI", "prov": "ZB", "tm": "M", "titolo": "B.C 13.AS", "pdf": null}}, {"type": "Feature", "geometry": {"type": "Point", "coordinates": [14.01658, 43.80631]}, "properties": {"nome": "CLARA NW 004 DIR", "anno": 2015, "dec": 2010, "esito": "Gas", "ecls": "gas", "scopo": "Sviluppo", "prof": 1357, "op": "ENI", "prov": "ZB", "tm": "M", "titolo": "B.C 13.AS", "pdf": null}}, {"type": "Feature", "geometry": {"type": "Point", "coordinates": [11.91961, 44.37039]}, "properties": {"nome": "COTIGNOLA C 006 DIR ST1", "anno": 2015, "dec": 2010, "esito": "Gas", "ecls": "gas", "scopo": "Stoccaggio", "prof": 935, "op": "EDISON STOCCAGGIO", "prov": "RA", "tm": "T", "titolo": null, "pdf": null}}, {"type": "Feature", "geometry": {"type": "Point", "coordinates": [10.16445, 44.66689]}, "properties": {"nome": "FASETTO 001 DIR", "anno": 2015, "dec": 2010, "esito": "Non produttivo", "ecls": "sterile", "scopo": "Sviluppo", "prof": 1916, "op": "GAS PLUS ITALIANA", "prov": "PR", "tm": "T", "titolo": null, "pdf": null}}, {"type": "Feature", "geometry": {"type": "Point", "coordinates": [12.88629, 44.56808]}, "properties": {"nome": "GUENDALINA 002 DIR A", "anno": 2015, "dec": 2010, "esito": "Gas", "ecls": "gas", "scopo": "Sviluppo", "prof": 3153, "op": "ENI", "prov": "ZA", "tm": "M", "titolo": "A.C 35.AG", "pdf": null}}, {"type": "Feature", "geometry": {"type": "Point", "coordinates": [15.45079, 40.38106]}, "properties": {"nome": "MONTE ENOC 010 OR C", "anno": 2015, "dec": 2010, "esito": "Olio", "ecls": "olio", "scopo": "Sviluppo", "prof": 3845, "op": "ENI", "prov": "PZ", "tm": "T", "titolo": null, "pdf": null}}, {"type": "Feature", "geometry": {"type": "Point", "coordinates": [11.9468, 44.41952]}, "properties": {"nome": "SAN POTITO A 001 DIR W", "anno": 2015, "dec": 2010, "esito": "Gas", "ecls": "gas", "scopo": "Sviluppo", "prof": 2159, "op": "EDISON STOCCAGGIO", "prov": "RA", "tm": "T", "titolo": "LONGANESI", "pdf": null}}, {"type": "Feature", "geometry": {"type": "Point", "coordinates": [14.69776, 42.00683]}, "properties": {"nome": "SAN SALVO 100 OR", "anno": 2015, "dec": 2010, "esito": "Gas", "ecls": "gas", "scopo": "Sviluppo", "prof": 1178, "op": "STOGIT", "prov": "CH", "tm": "T", "titolo": "FIUME TRESTE", "pdf": null}}, {"type": "Feature", "geometry": {"type": "Point", "coordinates": [16.06593, 40.4206]}, "properties": {"nome": "TEMPA ROSSA 001 DIR ST QUATER", "anno": 2015, "dec": 2010, "esito": "Olio prevalente e gas", "ecls": "misto", "scopo": "Sviluppo", "prof": 3190, "op": "TOTAL", "prov": "PZ", "tm": "T", "titolo": "GORGOGLIONE", "pdf": null}}, {"type": "Feature", "geometry": {"type": "Point", "coordinates": [12.62994, 44.30451]}, "properties": {"nome": "ARIANNA 006 DIR", "anno": 2014, "dec": 2010, "esito": "Gas", "ecls": "gas", "scopo": "Sviluppo", "prof": 4309, "op": "ENI", "prov": "ZA", "tm": "M", "titolo": "CERVIA MARE", "pdf": null}}, {"type": "Feature", "geometry": {"type": "Point", "coordinates": [12.44463, 44.47986]}, "properties": {"nome": "ARMIDA 004 DIR A", "anno": 2014, "dec": 2010, "esito": "Gas", "ecls": "gas", "scopo": "Sviluppo", "prof": 4140, "op": "ENI", "prov": "ZA", "tm": "M", "titolo": "A.C 29.EA", "pdf": null}}, {"type": "Feature", "geometry": {"type": "Point", "coordinates": [12.44814, 44.48011]}, "properties": {"nome": "ARMIDA 007 DIR A", "anno": 2014, "dec": 2010, "esito": "Gas", "ecls": "gas", "scopo": "Sviluppo", "prof": 3928, "op": "ENI", "prov": "ZA", "tm": "M", "titolo": "A.C 29.EA", "pdf": null}}, {"type": "Feature", "geometry": {"type": "Point", "coordinates": [13.80953, 44.02975]}, "properties": {"nome": "BARBARA D 029 DIR A", "anno": 2014, "dec": 2010, "esito": "Gas", "ecls": "gas", "scopo": "Sviluppo", "prof": 1632, "op": "ENI", "prov": "ZA", "tm": "M", "titolo": "A.C 7.AS", "pdf": null}}, {"type": "Feature", "geometry": {"type": "Point", "coordinates": [13.81212, 44.03659]}, "properties": {"nome": "BARBARA D 029 DIR B", "anno": 2014, "dec": 2010, "esito": "Gas", "ecls": "gas", "scopo": "Sviluppo", "prof": 1276, "op": "ENI", "prov": "ZA", "tm": "M", "titolo": "A.C 7.AS", "pdf": null}}, {"type": "Feature", "geometry": {"type": "Point", "coordinates": [13.80667, 44.0248]}, "properties": {"nome": "BARBARA D 030 DIR B", "anno": 2014, "dec": 2010, "esito": "Gas", "ecls": "gas", "scopo": "Sviluppo", "prof": 1282, "op": "ENI", "prov": "ZA", "tm": "M", "titolo": "A.C 7.AS", "pdf": null}}, {"type": "Feature", "geometry": {"type": "Point", "coordinates": [13.81533, 44.03512]}, "properties": {"nome": "BARBARA D 031 DIR B", "anno": 2014, "dec": 2010, "esito": "Gas", "ecls": "gas", "scopo": "Sviluppo", "prof": 1446, "op": "ENI", "prov": "ZA", "tm": "M", "titolo": "A.C 7.AS", "pdf": null}}, {"type": "Feature", "geometry": {"type": "Point", "coordinates": [13.81762, 44.02617]}, "properties": {"nome": "BARBARA D 034 DIR B", "anno": 2014, "dec": 2010, "esito": "Gas", "ecls": "gas", "scopo": "Sviluppo", "prof": 1470, "op": "ENI", "prov": "ZA", "tm": "M", "titolo": "A.C 7.AS", "pdf": null}}, {"type": "Feature", "geometry": {"type": "Point", "coordinates": [13.81613, 44.03035]}, "properties": {"nome": "BARBARA D 035 DIR B", "anno": 2014, "dec": 2010, "esito": "Gas", "ecls": "gas", "scopo": "Sviluppo", "prof": 1476, "op": "ENI", "prov": "ZA", "tm": "M", "titolo": "A.C 7.AS", "pdf": null}}, {"type": "Feature", "geometry": {"type": "Point", "coordinates": [13.79943, 44.01969]}, "properties": {"nome": "BARBARA D 036 DIR B", "anno": 2014, "dec": 2010, "esito": "Gas", "ecls": "gas", "scopo": "Sviluppo", "prof": 1567, "op": "ENI", "prov": "ZA", "tm": "M", "titolo": "A.C 7.AS", "pdf": null}}, {"type": "Feature", "geometry": {"type": "Point", "coordinates": [9.98423, 45.28669]}, "properties": {"nome": "BORDOLANO 028 DIR", "anno": 2014, "dec": 2010, "esito": "Gas", "ecls": "gas", "scopo": "Stoccaggio", "prof": 1807, "op": "STOGIT", "prov": "CR", "tm": "T", "titolo": "CIGNONE", "pdf": null}}, {"type": "Feature", "geometry": {"type": "Point", "coordinates": [13.86777, 43.81605]}, "properties": {"nome": "CALIPSO 004 DIR B", "anno": 2014, "dec": 2010, "esito": "Gas", "ecls": "gas", "scopo": "Sviluppo", "prof": 1274, "op": "ENI", "prov": "ZB", "tm": "M", "titolo": "B.C 14.AS", "pdf": null}}, {"type": "Feature", "geometry": {"type": "Point", "coordinates": [12.63569, 44.29513]}, "properties": {"nome": "CERVIA 030 DIR A", "anno": 2014, "dec": 2010, "esito": "Gas", "ecls": "gas", "scopo": "Sviluppo", "prof": 3471, "op": "ENI", "prov": "ZA", "tm": "M", "titolo": "CERVIA MARE", "pdf": null}}, {"type": "Feature", "geometry": {"type": "Point", "coordinates": [14.06564, 43.77156]}, "properties": {"nome": "CLARA EST 012 DIR A", "anno": 2014, "dec": 2010, "esito": "Gas", "ecls": "gas", "scopo": "Sviluppo", "prof": 1368, "op": "ENI", "prov": "ZA", "tm": "M", "titolo": "B.C 13.AS", "pdf": null}}, {"type": "Feature", "geometry": {"type": "Point", "coordinates": [14.07299, 43.7768]}, "properties": {"nome": "CLARA EST 013 DIR A", "anno": 2014, "dec": 2010, "esito": "Gas", "ecls": "gas", "scopo": "Sviluppo", "prof": 1327, "op": "ENI", "prov": "ZB", "tm": "M", "titolo": "B.C 13.AS", "pdf": null}}, {"type": "Feature", "geometry": {"type": "Point", "coordinates": [14.21539, 43.76372]}, "properties": {"nome": "ELETTRA 003", "anno": 2014, "dec": 2010, "esito": "Gas", "ecls": "gas", "scopo": "Sviluppo", "prof": 1185, "op": "ENI", "prov": "ZB", "tm": "M", "titolo": "B.C 23.AG", "pdf": null}}, {"type": "Feature", "geometry": {"type": "Point", "coordinates": [13.55416, 44.05566]}, "properties": {"nome": "FAUZIA 002", "anno": 2014, "dec": 2010, "esito": "Gas", "ecls": "gas", "scopo": "Sviluppo", "prof": 2308, "op": "ENI", "prov": "ZA", "tm": "M", "titolo": "A.C 36.AG", "pdf": null}}, {"type": "Feature", "geometry": {"type": "Point", "coordinates": [13.55419, 44.05566]}, "properties": {"nome": "FAUZIA 003 DIR", "anno": 2014, "dec": 2010, "esito": "Gas", "ecls": "gas", "scopo": "Sviluppo", "prof": 2387, "op": "ENI", "prov": "ZA", "tm": "M", "titolo": "A.C 36.AG", "pdf": null}}, {"type": "Feature", "geometry": {"type": "Point", "coordinates": [14.71888, 41.99761]}, "properties": {"nome": "LA COCCETTA 001 DIR A", "anno": 2014, "dec": 2010, "esito": "Non produttivo", "ecls": "sterile", "scopo": "Monitoraggio", "prof": 1099, "op": "STOGIT", "prov": "CH", "tm": "T", "titolo": "FIUME TRESTE", "pdf": null}}, {"type": "Feature", "geometry": {"type": "Point", "coordinates": [15.92883, 40.30788]}, "properties": {"nome": "MONTE ALPI 003 OR B", "anno": 2014, "dec": 2010, "esito": "Olio", "ecls": "olio", "scopo": "Sviluppo", "prof": 3048, "op": "ENI", "prov": "PZ", "tm": "T", "titolo": "VAL D'AGRI", "pdf": null}}, {"type": "Feature", "geometry": {"type": "Point", "coordinates": [12.85032, 44.10166]}, "properties": {"nome": "REGINA 004 DIR B", "anno": 2014, "dec": 2010, "esito": "Gas", "ecls": "gas", "scopo": "Sviluppo", "prof": 2212, "op": "ENI", "prov": "ZA", "tm": "M", "titolo": "A.C 17.AG", "pdf": null}}, {"type": "Feature", "geometry": {"type": "Point", "coordinates": [12.84117, 44.10563]}, "properties": {"nome": "REGINA 006 DIR B", "anno": 2014, "dec": 2010, "esito": "Gas", "ecls": "gas", "scopo": "Sviluppo", "prof": 2115, "op": "ENI", "prov": "ZA", "tm": "M", "titolo": "A.C 17.AG", "pdf": null}}, {"type": "Feature", "geometry": {"type": "Point", "coordinates": [9.41108, 45.43951]}, "properties": {"nome": "SETTALA 032 OR", "anno": 2014, "dec": 2010, "esito": "Gas", "ecls": "gas", "scopo": "Stoccaggio", "prof": 1293, "op": "STOGIT", "prov": "MI", "tm": "T", "titolo": "SETTALA", "pdf": null}}, {"type": "Feature", "geometry": {"type": "Point", "coordinates": [9.40987, 45.4606]}, "properties": {"nome": "SETTALA 033 OR", "anno": 2014, "dec": 2010, "esito": "Gas", "ecls": "gas", "scopo": "Stoccaggio", "prof": 1286, "op": "STOGIT", "prov": "MI", "tm": "T", "titolo": "SETTALA", "pdf": null}}, {"type": "Feature", "geometry": {"type": "Point", "coordinates": [16.076, 40.39574]}, "properties": {"nome": "TEMPA ROSSA 002 DIR ST", "anno": 2014, "dec": 2010, "esito": "Olio", "ecls": "olio", "scopo": "Sviluppo", "prof": 5471, "op": "TOTAL E&P ITALIA", "prov": "PZ", "tm": "T", "titolo": "GORGOGLIONE", "pdf": null}}, {"type": "Feature", "geometry": {"type": "Point", "coordinates": [15.06261, 41.74472]}, "properties": {"nome": "TORRENTE TONA 005 DIR A", "anno": 2014, "dec": 2010, "esito": "Olio", "ecls": "olio", "scopo": "Sviluppo", "prof": 1800, "op": "ADRIATICA IDROCARBURI", "prov": "CB", "tm": "T", "titolo": "MASSERIA VERTICCHIO", "pdf": null}}, {"type": "Feature", "geometry": {"type": "Point", "coordinates": [15.04858, 41.73222]}, "properties": {"nome": "TORRENTE TONA 017 DIR A", "anno": 2014, "dec": 2010, "esito": "Olio prevalente e gas", "ecls": "misto", "scopo": "Sviluppo", "prof": 1590, "op": "ADRIATICA IDROCARBURI", "prov": "CB", "tm": "T", "titolo": "MASSERIA VERTICCHIO", "pdf": null}}, {"type": "Feature", "geometry": {"type": "Point", "coordinates": [15.03739, 41.74321]}, "properties": {"nome": "TORRENTE TONA 020 DIR B", "anno": 2014, "dec": 2010, "esito": "Olio", "ecls": "olio", "scopo": "Sviluppo", "prof": 1855, "op": "ADRIATICA IDROCARBURI", "prov": "CB", "tm": "T", "titolo": "MASSERIA VERTICCHIO", "pdf": null}}, {"type": "Feature", "geometry": {"type": "Point", "coordinates": [15.83464, 40.38919]}, "properties": {"nome": "VOLTURINO 001 OR C", "anno": 2014, "dec": 2010, "esito": "Olio", "ecls": "olio", "scopo": "Sviluppo", "prof": 3798, "op": "ENI", "prov": "PZ", "tm": "T", "titolo": "VAL D'AGRI", "pdf": null}}, {"type": "Feature", "geometry": {"type": "Point", "coordinates": [15.83837, 40.36183]}, "properties": {"nome": "ALLI 002 OR", "anno": 2013, "dec": 2010, "esito": "Olio", "ecls": "olio", "scopo": "Sviluppo", "prof": 3283, "op": "ENI", "prov": "PZ", "tm": "T", "titolo": "VAL D'AGRI", "pdf": null}}, {"type": "Feature", "geometry": {"type": "Point", "coordinates": [13.41317, 44.32476]}, "properties": {"nome": "ANNAMARIA 016 DIR", "anno": 2013, "dec": 2010, "esito": "Gas", "ecls": "gas", "scopo": "Sviluppo", "prof": 1543, "op": "ENI", "prov": "ZA", "tm": "M", "titolo": "A.C 11.AG", "pdf": null}}, {"type": "Feature", "geometry": {"type": "Point", "coordinates": [13.99785, 44.32798]}, "properties": {"nome": "ANNAMARIA 017 DIR", "anno": 2013, "dec": 2010, "esito": "Gas", "ecls": "gas", "scopo": "Sviluppo", "prof": 1807, "op": "ENI", "prov": "ZA", "tm": "M", "titolo": null, "pdf": null}}, {"type": "Feature", "geometry": {"type": "Point", "coordinates": [9.97427, 45.2893]}, "properties": {"nome": "BORDOLANO 022 DIR", "anno": 2013, "dec": 2010, "esito": "Gas", "ecls": "gas", "scopo": "Stoccaggio", "prof": 1762, "op": "STOGIT", "prov": "CR", "tm": "T", "titolo": "CIGNONE", "pdf": null}}, {"type": "Feature", "geometry": {"type": "Point", "coordinates": [9.97749, 45.29355]}, "properties": {"nome": "BORDOLANO 023 DIR", "anno": 2013, "dec": 2010, "esito": "Gas", "ecls": "gas", "scopo": "Stoccaggio", "prof": 1753, "op": "STOGIT", "prov": "CR", "tm": "T", "titolo": "CIGNONE", "pdf": null}}, {"type": "Feature", "geometry": {"type": "Point", "coordinates": [9.98034, 45.29026]}, "properties": {"nome": "BORDOLANO 024 DIR", "anno": 2013, "dec": 2010, "esito": "Gas", "ecls": "gas", "scopo": "Stoccaggio", "prof": 1768, "op": "STOGIT", "prov": "CR", "tm": "T", "titolo": "CIGNONE", "pdf": null}}, {"type": "Feature", "geometry": {"type": "Point", "coordinates": [9.97305, 45.2927]}, "properties": {"nome": "BORDOLANO 025 DIR", "anno": 2013, "dec": 2010, "esito": "Gas", "ecls": "gas", "scopo": "Stoccaggio", "prof": 1776, "op": "STOGIT", "prov": "CR", "tm": "T", "titolo": "CIGNONE", "pdf": null}}, {"type": "Feature", "geometry": {"type": "Point", "coordinates": [9.97784, 45.28729]}, "properties": {"nome": "BORDOLANO 026 DIR", "anno": 2013, "dec": 2010, "esito": "Gas", "ecls": "gas", "scopo": "Stoccaggio", "prof": 1774, "op": "STOGIT", "prov": "CR", "tm": "T", "titolo": "CIGNONE", "pdf": null}}, {"type": "Feature", "geometry": {"type": "Point", "coordinates": [9.98253, 45.2921]}, "properties": {"nome": "BORDOLANO 027 DIR", "anno": 2013, "dec": 2010, "esito": "Gas", "ecls": "gas", "scopo": "Stoccaggio", "prof": 1748, "op": "STOGIT", "prov": "CR", "tm": "T", "titolo": "CIGNONE", "pdf": null}}, {"type": "Feature", "geometry": {"type": "Point", "coordinates": [13.05277, 44.11131]}, "properties": {"nome": "BRENDA 004 DIR A", "anno": 2013, "dec": 2010, "esito": "Gas", "ecls": "gas", "scopo": "Sviluppo", "prof": 1692, "op": "ENI", "prov": "ZA", "tm": "M", "titolo": "A.C 12.AG", "pdf": null}}, {"type": "Feature", "geometry": {"type": "Point", "coordinates": [12.66648, 44.27222]}, "properties": {"nome": "CERVIA B 021 DIR B", "anno": 2013, "dec": 2010, "esito": "Gas", "ecls": "gas", "scopo": "Sviluppo", "prof": 2324, "op": "ENI", "prov": "ZA", "tm": "M", "titolo": "CERVIA MARE", "pdf": null}}, {"type": "Feature", "geometry": {"type": "Point", "coordinates": [12.65997, 44.27633]}, "properties": {"nome": "CERVIA B 024 DIR B", "anno": 2013, "dec": 2010, "esito": "Gas", "ecls": "gas", "scopo": "Sviluppo", "prof": 1897, "op": "ENI", "prov": "ZA", "tm": "M", "titolo": "CERVIA MARE", "pdf": null}}, {"type": "Feature", "geometry": {"type": "Point", "coordinates": [14.68897, 42.007]}, "properties": {"nome": "CUPELLO 026 DIR A", "anno": 2013, "dec": 2010, "esito": "Gas", "ecls": "gas", "scopo": "Monitoraggio", "prof": 1141, "op": "STOGIT", "prov": "CH", "tm": "T", "titolo": "FIUME TRESTE", "pdf": null}}, {"type": "Feature", "geometry": {"type": "Point", "coordinates": [14.24441, 42.93309]}, "properties": {"nome": "EMILIO 008 DIR B", "anno": 2013, "dec": 2010, "esito": "Gas", "ecls": "gas", "scopo": "Sviluppo", "prof": 2770, "op": "ENI", "prov": "ZB", "tm": "M", "titolo": "B.C 3.AS", "pdf": null}}, {"type": "Feature", "geometry": {"type": "Point", "coordinates": [11.84392, 44.85869]}, "properties": {"nome": "GRADIZZA 001", "anno": 2013, "dec": 2010, "esito": "Gas", "ecls": "gas", "scopo": "Esplorativo", "prof": 1030, "op": "NORTHSUN ITALIA", "prov": "FE", "tm": "T", "titolo": "LA PROSPERA", "pdf": null}}, {"type": "Feature", "geometry": {"type": "Point", "coordinates": [15.9354, 40.34106]}, "properties": {"nome": "MONTE ALPI 002 OR A", "anno": 2013, "dec": 2010, "esito": "Olio", "ecls": "olio", "scopo": "Sviluppo", "prof": 3324, "op": "ENI", "prov": "PZ", "tm": "T", "titolo": "VAL D'AGRI", "pdf": null}}, {"type": "Feature", "geometry": {"type": "Point", "coordinates": [14.93185, 42.23502]}, "properties": {"nome": "ROSPO MARE 330 ST", "anno": 2013, "dec": 2010, "esito": "Olio", "ecls": "olio", "scopo": "Sviluppo", "prof": 1398, "op": "EDISON", "prov": "ZB", "tm": "M", "titolo": "B.C 8.LF", "pdf": null}}, {"type": "Feature", "geometry": {"type": "Point", "coordinates": [14.93183, 42.23503]}, "properties": {"nome": "ROSPO MARE 334 ST", "anno": 2013, "dec": 2010, "esito": "Olio", "ecls": "olio", "scopo": "Sviluppo", "prof": 1397, "op": "EDISON", "prov": "ZB", "tm": "M", "titolo": "B.C 8.LF", "pdf": null}}, {"type": "Feature", "geometry": {"type": "Point", "coordinates": [11.90477, 44.79224]}, "properties": {"nome": "SABBIONCELLO 053 DIR", "anno": 2013, "dec": 2010, "esito": "Gas", "ecls": "gas", "scopo": "Monitoraggio", "prof": 1260, "op": "STOGIT", "prov": "FE", "tm": "T", "titolo": null, "pdf": null}}, {"type": "Feature", "geometry": {"type": "Point", "coordinates": [12.24456, 45.80757]}, "properties": {"nome": "SANT'ANDREA 001 DIR ST1", "anno": 2013, "dec": 2010, "esito": "Gas", "ecls": "gas", "scopo": "Esplorativo", "prof": 2013, "op": "APENNINE ENERGY", "prov": "TV", "tm": "T", "titolo": "CASA TONETTO", "pdf": null}}, {"type": "Feature", "geometry": {"type": "Point", "coordinates": [8.7507, 45.46604]}, "properties": {"nome": "TRECATE 004 DIR A", "anno": 2013, "dec": 2010, "esito": "Non produttivo", "ecls": "sterile", "scopo": "Sviluppo", "prof": 5594, "op": "ENI", "prov": "NO", "tm": "T", "titolo": "VILLAFORTUNA-TRECATE", "pdf": null}}, {"type": "Feature", "geometry": {"type": "Point", "coordinates": [12.77061, 44.21725]}, "properties": {"nome": "ANTONELLA 006 DIR B", "anno": 2012, "dec": 2010, "esito": "Gas", "ecls": "gas", "scopo": "Sviluppo", "prof": 4673, "op": "ENI", "prov": "ZA", "tm": "M", "titolo": "A.C 5.AV", "pdf": null}}, {"type": "Feature", "geometry": {"type": "Point", "coordinates": [13.75124, 44.08749]}, "properties": {"nome": "BARBARA E 044 DIR B", "anno": 2012, "dec": 2010, "esito": "Gas", "ecls": "gas", "scopo": "Sviluppo", "prof": 1056, "op": "ENI", "prov": "ZA", "tm": "M", "titolo": "A.C 7.AS", "pdf": null}}, {"type": "Feature", "geometry": {"type": "Point", "coordinates": [13.75269, 44.09146]}, "properties": {"nome": "BARBARA E 048 DIR B", "anno": 2012, "dec": 2010, "esito": "Gas", "ecls": "gas", "scopo": "Sviluppo", "prof": 1055, "op": "ENI", "prov": "ZA", "tm": "M", "titolo": "A.C 7.AS", "pdf": null}}, {"type": "Feature", "geometry": {"type": "Point", "coordinates": [13.76052, 44.08909]}, "properties": {"nome": "BARBARA E 051 DIR A", "anno": 2012, "dec": 2010, "esito": "Gas", "ecls": "gas", "scopo": "Sviluppo", "prof": 1501, "op": "ENI", "prov": "ZA", "tm": "M", "titolo": "A.C 7.AS", "pdf": null}}, {"type": "Feature", "geometry": {"type": "Point", "coordinates": [13.7634, 44.08738]}, "properties": {"nome": "BARBARA E 053 DIR A", "anno": 2012, "dec": 2010, "esito": "Gas", "ecls": "gas", "scopo": "Sviluppo", "prof": 1499, "op": "ENI", "prov": "ZA", "tm": "M", "titolo": "A.C 7.AS", "pdf": null}}, {"type": "Feature", "geometry": {"type": "Point", "coordinates": [13.75884, 44.09329]}, "properties": {"nome": "BARBARA E 055 DIR B", "anno": 2012, "dec": 2010, "esito": "Gas", "ecls": "gas", "scopo": "Sviluppo", "prof": 1496, "op": "ENI", "prov": "ZA", "tm": "M", "titolo": "A.C 7.AS", "pdf": null}}, {"type": "Feature", "geometry": {"type": "Point", "coordinates": [13.00783, 44.12466]}, "properties": {"nome": "BASIL 006 DIR C", "anno": 2012, "dec": 2010, "esito": "Gas", "ecls": "gas", "scopo": "Sviluppo", "prof": 1497, "op": "ENI", "prov": "ZA", "tm": "M", "titolo": "A.C 12.AG", "pdf": null}}, {"type": "Feature", "geometry": {"type": "Point", "coordinates": [13.0072, 44.12858]}, "properties": {"nome": "BASIL 009 DIR A", "anno": 2012, "dec": 2010, "esito": "Gas", "ecls": "gas", "scopo": "Sviluppo", "prof": 2189, "op": "ENI", "prov": "ZA", "tm": "M", "titolo": "A.C 12.AG", "pdf": null}}, {"type": "Feature", "geometry": {"type": "Point", "coordinates": [13.03501, 44.11905]}, "properties": {"nome": "BRENDA 002 DIR A", "anno": 2012, "dec": 2010, "esito": "Gas", "ecls": "gas", "scopo": "Sviluppo", "prof": 2088, "op": "ENI", "prov": "ZA", "tm": "M", "titolo": "A.C 12.AG", "pdf": null}}, {"type": "Feature", "geometry": {"type": "Point", "coordinates": [13.0379, 44.11637]}, "properties": {"nome": "BRENDA 003 DIR A", "anno": 2012, "dec": 2010, "esito": "Gas", "ecls": "gas", "scopo": "Sviluppo", "prof": 2093, "op": "ENI", "prov": "ZA", "tm": "M", "titolo": "A.C 12.AG", "pdf": null}}, {"type": "Feature", "geometry": {"type": "Point", "coordinates": [13.04222, 44.11674]}, "properties": {"nome": "BRENDA 006 DIR A", "anno": 2012, "dec": 2010, "esito": "Gas", "ecls": "gas", "scopo": "Sviluppo", "prof": 1634, "op": "ENI", "prov": "ZA", "tm": "M", "titolo": "A.C 12.AG", "pdf": null}}, {"type": "Feature", "geometry": {"type": "Point", "coordinates": [12.98045, 43.93156]}, "properties": {"nome": "CAPPARUCCIA 001 DIR A", "anno": 2012, "dec": 2010, "esito": "Gas", "ecls": "gas", "scopo": "Sviluppo", "prof": 2634, "op": "ADRIATICA IDROCARBURI", "prov": "AP", "tm": "T", "titolo": null, "pdf": null}}, {"type": "Feature", "geometry": {"type": "Point", "coordinates": [13.60834, 43.13412]}, "properties": {"nome": "CAPPARUCCIA 002 DIR B", "anno": 2012, "dec": 2010, "esito": "Non produttivo", "ecls": "sterile", "scopo": "Sviluppo", "prof": 2592, "op": "ADRIATICA IDROCARBURI", "prov": "AP", "tm": "T", "titolo": null, "pdf": null}}, {"type": "Feature", "geometry": {"type": "Point", "coordinates": [13.98045, 43.93156]}, "properties": {"nome": "CAPPARUCCIA 002 DIR C", "anno": 2012, "dec": 2010, "esito": "Non produttivo", "ecls": "sterile", "scopo": "Sviluppo", "prof": 1576, "op": "ADRIATICA IDROCARBURI", "prov": "AP", "tm": "T", "titolo": "B.C 13.AS", "pdf": null}}, {"type": "Feature", "geometry": {"type": "Point", "coordinates": [13.36635, 43.62881]}, "properties": {"nome": "CASA TIBERI 001", "anno": 2012, "dec": 2010, "esito": "Gas", "ecls": "gas", "scopo": "Esplorativo", "prof": 715, "op": "APENNINE ENERGY", "prov": "AN", "tm": "T", "titolo": "SAN LORENZO", "pdf": null}}, {"type": "Feature", "geometry": {"type": "Point", "coordinates": [13.98139, 43.93228]}, "properties": {"nome": "CLARA NORD 007 DIR A", "anno": 2012, "dec": 2010, "esito": "Gas", "ecls": "gas", "scopo": "Sviluppo", "prof": 1396, "op": "ENI", "prov": "ZA", "tm": "M", "titolo": "B.C 13.AS", "pdf": null}}, {"type": "Feature", "geometry": {"type": "Point", "coordinates": [11.96982, 44.36094]}, "properties": {"nome": "COTIGNOLA B 002 DIR ST2", "anno": 2012, "dec": 2010, "esito": "Gas", "ecls": "gas", "scopo": "Stoccaggio", "prof": 1196, "op": "EDISON STOCCAGGIO", "prov": "RA", "tm": "T", "titolo": null, "pdf": null}}, {"type": "Feature", "geometry": {"type": "Point", "coordinates": [11.96976, 44.36096]}, "properties": {"nome": "COTIGNOLA B 003 DIR ST1", "anno": 2012, "dec": 2010, "esito": "Gas", "ecls": "gas", "scopo": "Stoccaggio", "prof": 1105, "op": "EDISON STOCCAGGIO", "prov": "RA", "tm": "T", "titolo": null, "pdf": null}}, {"type": "Feature", "geometry": {"type": "Point", "coordinates": [11.91963, 44.37038]}, "properties": {"nome": "COTIGNOLA C 001 DIR", "anno": 2012, "dec": 2010, "esito": "Gas", "ecls": "gas", "scopo": "Stoccaggio", "prof": 1021, "op": "EDISON STOCCAGGIO", "prov": "RA", "tm": "T", "titolo": null, "pdf": null}}, {"type": "Feature", "geometry": {"type": "Point", "coordinates": [11.91961, 44.37039]}, "properties": {"nome": "COTIGNOLA C 002 DIR", "anno": 2012, "dec": 2010, "esito": "Gas", "ecls": "gas", "scopo": "Stoccaggio", "prof": 1057, "op": "EDISON STOCCAGGIO", "prov": "RA", "tm": "T", "titolo": null, "pdf": null}}, {"type": "Feature", "geometry": {"type": "Point", "coordinates": [11.91958, 44.3704]}, "properties": {"nome": "COTIGNOLA C 003 DIR", "anno": 2012, "dec": 2010, "esito": "Gas", "ecls": "gas", "scopo": "Stoccaggio", "prof": 1093, "op": "EDISON STOCCAGGIO", "prov": "RA", "tm": "T", "titolo": null, "pdf": null}}, {"type": "Feature", "geometry": {"type": "Point", "coordinates": [11.91955, 44.37041]}, "properties": {"nome": "COTIGNOLA C 004 DIR", "anno": 2012, "dec": 2010, "esito": "Gas", "ecls": "gas", "scopo": "Stoccaggio", "prof": 1131, "op": "EDISON STOCCAGGIO", "prov": "RA", "tm": "T", "titolo": null, "pdf": null}}, {"type": "Feature", "geometry": {"type": "Point", "coordinates": [11.91955, 44.37041]}, "properties": {"nome": "COTIGNOLA C 005 DIR", "anno": 2012, "dec": 2010, "esito": "Gas", "ecls": "gas", "scopo": "Stoccaggio", "prof": 1041, "op": "EDISON STOCCAGGIO", "prov": "RA", "tm": "T", "titolo": null, "pdf": null}}, {"type": "Feature", "geometry": {"type": "Point", "coordinates": [11.9195, 44.37044]}, "properties": {"nome": "COTIGNOLA C 006 DIR", "anno": 2012, "dec": 2010, "esito": "Gas", "ecls": "gas", "scopo": "Stoccaggio", "prof": 1042, "op": "EDISON STOCCAGGIO", "prov": "RA", "tm": "T", "titolo": null, "pdf": null}}, {"type": "Feature", "geometry": {"type": "Point", "coordinates": [13.26526, 44.05791]}, "properties": {"nome": "DARIA 005 DIR A", "anno": 2012, "dec": 2010, "esito": "Gas", "ecls": "gas", "scopo": "Sviluppo", "prof": 1906, "op": "ENI", "prov": "ZA", "tm": "M", "titolo": "A.C 13.AS", "pdf": null}}, {"type": "Feature", "geometry": {"type": "Point", "coordinates": [12.05667, 44.75333]}, "properties": {"nome": "GALLARE 006 DIR", "anno": 2012, "dec": 2010, "esito": "Non produttivo", "ecls": "sterile", "scopo": "Esplorativo", "prof": 2000, "op": "ALEANNA RESOURCES", "prov": "FE", "tm": "T", "titolo": null, "pdf": null}}, {"type": "Feature", "geometry": {"type": "Point", "coordinates": [12.0568, 44.75334]}, "properties": {"nome": "GALLARE 006 DIR A", "anno": 2012, "dec": 2010, "esito": "Non produttivo", "ecls": "sterile", "scopo": "Esplorativo", "prof": 2000, "op": "ALEANNA RESOURCES", "prov": "FE", "tm": "T", "titolo": null, "pdf": null}}, {"type": "Feature", "geometry": {"type": "Point", "coordinates": [16.11349, 40.40876]}, "properties": {"nome": "GORGOGLIONE 002", "anno": 2012, "dec": 2010, "esito": "Olio", "ecls": "olio", "scopo": "Sviluppo", "prof": 5838, "op": "TOTAL E&P ITALIA", "prov": "MT", "tm": "T", "titolo": "GORGOGLIONE", "pdf": null}}, {"type": "Feature", "geometry": {"type": "Point", "coordinates": [12.01441, 44.55781]}, "properties": {"nome": "LA TOSCA 001 DIR", "anno": 2012, "dec": 2010, "esito": "Non produttivo", "ecls": "sterile", "scopo": "Esplorativo", "prof": 2258, "op": "NORTHERN PETROLEUM LIMITED", "prov": "RA", "tm": "T", "titolo": null, "pdf": "https://www.videpi.com/deposito/pozzi/profili/pdf/la_tosca_001.pdf"}}, {"type": "Feature", "geometry": {"type": "Point", "coordinates": [17.17277, 39.06139]}, "properties": {"nome": "LUNA 041 DIR A", "anno": 2012, "dec": 2010, "esito": "Gas", "ecls": "gas", "scopo": "Sviluppo", "prof": 1781, "op": "IONICA GAS", "prov": "ZD", "tm": "M", "titolo": "D.C 1.AG", "pdf": null}}, {"type": "Feature", "geometry": {"type": "Point", "coordinates": [10.61344, 44.30806]}, "properties": {"nome": "MEDOLA 015", "anno": 2012, "dec": 2010, "esito": "Gas", "ecls": "gas", "scopo": "Sviluppo", "prof": 675, "op": "SIAM", "prov": "MO", "tm": "T", "titolo": null, "pdf": null}}, {"type": "Feature", "geometry": {"type": "Point", "coordinates": [15.95207, 40.34106]}, "properties": {"nome": "MONTE ALPI 001 OR B", "anno": 2012, "dec": 2010, "esito": "Olio", "ecls": "olio", "scopo": "Sviluppo", "prof": 3324, "op": "ENI", "prov": "PZ", "tm": "T", "titolo": "VAL D'AGRI", "pdf": null}}, {"type": "Feature", "geometry": {"type": "Point", "coordinates": [12.87886, 44.68955]}, "properties": {"nome": "NAOMI 002 DIR A", "anno": 2012, "dec": 2010, "esito": "Gas", "ecls": "gas", "scopo": "Sviluppo", "prof": 2733, "op": "ENI", "prov": "ZA", "tm": "M", "titolo": "A.C 33.AG", "pdf": null}}, {"type": "Feature", "geometry": {"type": "Point", "coordinates": [12.81287, 44.68835]}, "properties": {"nome": "PANDORA 002 DIR A", "anno": 2012, "dec": 2010, "esito": "Gas", "ecls": "gas", "scopo": "Sviluppo", "prof": 2735, "op": "ENI", "prov": "ZA", "tm": "M", "titolo": "A.C 33.AG", "pdf": null}}, {"type": "Feature", "geometry": {"type": "Point", "coordinates": [12.36144, 44.50686]}, "properties": {"nome": "PORTO CORSINI MARE OVEST 026 DIR B", "anno": 2012, "dec": 2010, "esito": "Gas", "ecls": "gas", "scopo": "Sviluppo", "prof": 4290, "op": "ENI", "prov": "ZA", "tm": "M", "titolo": "A.C 26.EA", "pdf": null}}, {"type": "Feature", "geometry": {"type": "Point", "coordinates": [9.41741, 45.44316]}, "properties": {"nome": "SETTALA 030 OR", "anno": 2012, "dec": 2010, "esito": "Gas", "ecls": "gas", "scopo": "Sviluppo", "prof": 1281, "op": "STOGIT", "prov": "MI", "tm": "T", "titolo": "SETTALA", "pdf": null}}, {"type": "Feature", "geometry": {"type": "Point", "coordinates": [9.41741, 45.44215]}, "properties": {"nome": "SETTALA 031 OR", "anno": 2012, "dec": 2010, "esito": "Gas", "ecls": "gas", "scopo": "Sviluppo", "prof": 1274, "op": "STOGIT", "prov": "MI", "tm": "T", "titolo": "SETTALA", "pdf": null}}, {"type": "Feature", "geometry": {"type": "Point", "coordinates": [13.76634, 44.0896]}, "properties": {"nome": "BARBARA E 041 DIR A", "anno": 2011, "dec": 2010, "esito": "Gas", "ecls": "gas", "scopo": "Sviluppo", "prof": 1493, "op": "ENI", "prov": "ZA", "tm": "M", "titolo": "A.C 7.AS", "pdf": null}}, {"type": "Feature", "geometry": {"type": "Point", "coordinates": [13.76331, 44.0916]}, "properties": {"nome": "BARBARA E 042 DIR A", "anno": 2011, "dec": 2010, "esito": "Gas", "ecls": "gas", "scopo": "Sviluppo", "prof": 1496, "op": "ENI", "prov": "ZA", "tm": "M", "titolo": "A.C 7.AS", "pdf": null}}, {"type": "Feature", "geometry": {"type": "Point", "coordinates": [13.76982, 44.08698]}, "properties": {"nome": "BARBARA E 049 DIR A", "anno": 2011, "dec": 2010, "esito": "Gas", "ecls": "gas", "scopo": "Sviluppo", "prof": 1493, "op": "ENI", "prov": "ZA", "tm": "M", "titolo": "A.C 7.AS", "pdf": null}}, {"type": "Feature", "geometry": {"type": "Point", "coordinates": [13.76781, 44.08595]}, "properties": {"nome": "BARBARA E 054 DIR A", "anno": 2011, "dec": 2010, "esito": "Gas", "ecls": "gas", "scopo": "Sviluppo", "prof": 1307, "op": "ENI", "prov": "ZA", "tm": "M", "titolo": "A.C 7.AS", "pdf": null}}, {"type": "Feature", "geometry": {"type": "Point", "coordinates": [13.81727, 44.04952]}, "properties": {"nome": "BARBARA F 059 DIR B", "anno": 2011, "dec": 2010, "esito": "Gas", "ecls": "gas", "scopo": "Sviluppo", "prof": 1492, "op": "ENI", "prov": "ZA", "tm": "M", "titolo": "A.C 7.AS", "pdf": null}}, {"type": "Feature", "geometry": {"type": "Point", "coordinates": [13.81723, 44.04954]}, "properties": {"nome": "BARBARA F 063 DIR A", "anno": 2011, "dec": 2010, "esito": "Gas", "ecls": "gas", "scopo": "Sviluppo", "prof": 1282, "op": "ENI", "prov": "ZA", "tm": "M", "titolo": "A.C 7.AS", "pdf": null}}, {"type": "Feature", "geometry": {"type": "Point", "coordinates": [13.81098, 44.03886]}, "properties": {"nome": "BARBARA F 067 DIR A", "anno": 2011, "dec": 2010, "esito": "Gas", "ecls": "gas", "scopo": "Sviluppo", "prof": 1460, "op": "ENI", "prov": "ZA", "tm": "M", "titolo": "A.C 7.AS", "pdf": null}}, {"type": "Feature", "geometry": {"type": "Point", "coordinates": [13.64779, 44.10057]}, "properties": {"nome": "BARBARA NORD OVEST 005 DIR A", "anno": 2011, "dec": 2010, "esito": "Gas", "ecls": "gas", "scopo": "Sviluppo", "prof": 1203, "op": "ENI", "prov": "ZA", "tm": "M", "titolo": "A.C 7.AS", "pdf": null}}, {"type": "Feature", "geometry": {"type": "Point", "coordinates": [13.65628, 44.10817]}, "properties": {"nome": "BARBARA NORD OVEST 006 DIR A", "anno": 2011, "dec": 2010, "esito": "Gas", "ecls": "gas", "scopo": "Sviluppo", "prof": 1772, "op": "ENI", "prov": "ZA", "tm": "M", "titolo": "A.C 7.AS", "pdf": null}}, {"type": "Feature", "geometry": {"type": "Point", "coordinates": [13.65481, 44.10666]}, "properties": {"nome": "BARBARA NORD OVEST 007 DIR B", "anno": 2011, "dec": 2010, "esito": "Gas", "ecls": "gas", "scopo": "Sviluppo", "prof": 1772, "op": "ENI", "prov": "ZA", "tm": "M", "titolo": "A.C 7.AS", "pdf": null}}, {"type": "Feature", "geometry": {"type": "Point", "coordinates": [13.64896, 44.10821]}, "properties": {"nome": "BARBARA NORD OVEST 008 DIR A", "anno": 2011, "dec": 2010, "esito": "Gas", "ecls": "gas", "scopo": "Sviluppo", "prof": 1520, "op": "ENI", "prov": "ZA", "tm": "M", "titolo": "A.C 7.AS", "pdf": null}}, {"type": "Feature", "geometry": {"type": "Point", "coordinates": [14.15411, 43.89891]}, "properties": {"nome": "CALPURNIA 004 DIR A", "anno": 2011, "dec": 2010, "esito": "Gas", "ecls": "gas", "scopo": "Sviluppo", "prof": 1200, "op": "ENI", "prov": "ZB", "tm": "M", "titolo": "B.C 22.AG", "pdf": null}}, {"type": "Feature", "geometry": {"type": "Point", "coordinates": [14.15408, 43.89889]}, "properties": {"nome": "CALPURNIA 005 DIR A", "anno": 2011, "dec": 2010, "esito": "Gas", "ecls": "gas", "scopo": "Sviluppo", "prof": 1168, "op": "ENI", "prov": "ZB", "tm": "M", "titolo": "B.C 22.AG", "pdf": null}}, {"type": "Feature", "geometry": {"type": "Point", "coordinates": [13.98045, 43.93156]}, "properties": {"nome": "CLARA NORD 004 DIR A", "anno": 2011, "dec": 2010, "esito": "Gas", "ecls": "gas", "scopo": "Sviluppo", "prof": 1576, "op": "ENI", "prov": "ZB", "tm": "M", "titolo": "B.C 13.AS", "pdf": null}}, {"type": "Feature", "geometry": {"type": "Point", "coordinates": [13.98045, 43.93156]}, "properties": {"nome": "CLARA NORD 004 DIR A", "anno": 2011, "dec": 2010, "esito": "Gas", "ecls": "gas", "scopo": "Sviluppo", "prof": 1576, "op": "ENI", "prov": "ZB", "tm": "M", "titolo": "B.C 13.AS", "pdf": null}}, {"type": "Feature", "geometry": {"type": "Point", "coordinates": [13.98574, 43.93536]}, "properties": {"nome": "CLARA NORD 006 DIR A", "anno": 2011, "dec": 2010, "esito": "Gas", "ecls": "gas", "scopo": "Sviluppo", "prof": 1582, "op": "ENI", "prov": "ZB", "tm": "M", "titolo": "B.C 13.AS", "pdf": null}}, {"type": "Feature", "geometry": {"type": "Point", "coordinates": [13.97982, 43.93257]}, "properties": {"nome": "CLARA NORD 008 DIR A", "anno": 2011, "dec": 2010, "esito": "Gas", "ecls": "gas", "scopo": "Sviluppo", "prof": 1577, "op": "ENI", "prov": "ZB", "tm": "M", "titolo": "B.C 13.AS", "pdf": null}}, {"type": "Feature", "geometry": {"type": "Point", "coordinates": [11.96979, 44.36095]}, "properties": {"nome": "COTIGNOLA B 001", "anno": 2011, "dec": 2010, "esito": "Non produttivo", "ecls": "sterile", "scopo": "Stratigrafico", "prof": 1106, "op": "EDISON STOCCAGGIO", "prov": "RA", "tm": "T", "titolo": null, "pdf": null}}, {"type": "Feature", "geometry": {"type": "Point", "coordinates": [11.96979, 44.36095]}, "properties": {"nome": "COTIGNOLA B 001 DIR", "anno": 2011, "dec": 2010, "esito": "Gas", "ecls": "gas", "scopo": "Stratigrafico", "prof": 1160, "op": "EDISON STOCCAGGIO", "prov": "RA", "tm": "T", "titolo": null, "pdf": null}}, {"type": "Feature", "geometry": {"type": "Point", "coordinates": [11.96976, 44.36096]}, "properties": {"nome": "COTIGNOLA B 003 DIR", "anno": 2011, "dec": 2010, "esito": "Non produttivo", "ecls": "sterile", "scopo": "Stratigrafico", "prof": 1273, "op": "EDISON STOCCAGGIO", "prov": "RA", "tm": "T", "titolo": null, "pdf": null}}, {"type": "Feature", "geometry": {"type": "Point", "coordinates": [11.91947, 44.37045]}, "properties": {"nome": "COTIGNOLA C 007 DIR", "anno": 2011, "dec": 2010, "esito": "Gas", "ecls": "gas", "scopo": "Stratigrafico", "prof": 1327, "op": "EDISON STOCCAGGIO", "prov": "RA", "tm": "T", "titolo": null, "pdf": null}}, {"type": "Feature", "geometry": {"type": "Point", "coordinates": [13.24933, 44.06692]}, "properties": {"nome": "DARIA 007 DIR B", "anno": 2011, "dec": 2010, "esito": "Gas", "ecls": "gas", "scopo": "Sviluppo", "prof": 2055, "op": "ENI", "prov": "ZA", "tm": "M", "titolo": "A.C 13.AS", "pdf": null}}, {"type": "Feature", "geometry": {"type": "Point", "coordinates": [13.24929, 44.06692]}, "properties": {"nome": "DARIA 010 DIR B", "anno": 2011, "dec": 2010, "esito": "Gas", "ecls": "gas", "scopo": "Sviluppo", "prof": 2857, "op": "ENI", "prov": "ZA", "tm": "M", "titolo": "A.C 13.AS", "pdf": null}}, {"type": "Feature", "geometry": {"type": "Point", "coordinates": [13.24928, 44.06694]}, "properties": {"nome": "DARIA 011 DIR A", "anno": 2011, "dec": 2010, "esito": "Gas", "ecls": "gas", "scopo": "Sviluppo", "prof": 2993, "op": "ENI", "prov": "ZA", "tm": "M", "titolo": "A.C 13.AS", "pdf": null}}, {"type": "Feature", "geometry": {"type": "Point", "coordinates": [13.24927, 44.06695]}, "properties": {"nome": "DARIA 014 DIR A", "anno": 2011, "dec": 2010, "esito": "Gas", "ecls": "gas", "scopo": "Sviluppo", "prof": 1948, "op": "ENI", "prov": "ZA", "tm": "M", "titolo": "A.C 13.AS", "pdf": null}}, {"type": "Feature", "geometry": {"type": "Point", "coordinates": [11.01039, 44.19278]}, "properties": {"nome": "GAGGIOLA 205", "anno": 2011, "dec": 2010, "esito": "Non produttivo", "ecls": "sterile", "scopo": "Sviluppo", "prof": 153, "op": "LAZZI GAS", "prov": "BO", "tm": "T", "titolo": "GAGGIOLA", "pdf": null}}, {"type": "Feature", "geometry": {"type": "Point", "coordinates": [12.87545, 44.56335]}, "properties": {"nome": "GUENDALINA 002 DIR", "anno": 2011, "dec": 2010, "esito": "Gas", "ecls": "gas", "scopo": "Sviluppo", "prof": 3226, "op": "ENI", "prov": "ZA", "tm": "M", "titolo": "A.C 35.AG", "pdf": null}}, {"type": "Feature", "geometry": {"type": "Point", "coordinates": [12.88176, 44.56584]}, "properties": {"nome": "GUENDALINA 003", "anno": 2011, "dec": 2010, "esito": "Gas", "ecls": "gas", "scopo": "Sviluppo", "prof": 3164, "op": "ENI", "prov": "ZA", "tm": "M", "titolo": "A.C 35.AG", "pdf": null}}, {"type": "Feature", "geometry": {"type": "Point", "coordinates": [15.93319, 40.33539]}, "properties": {"nome": "MONTE ALPI NORD 001 OR-B", "anno": 2011, "dec": 2010, "esito": "Olio", "ecls": "olio", "scopo": "Sviluppo", "prof": 4941, "op": "ENI", "prov": "PZ", "tm": "T", "titolo": "VAL D'AGRI", "pdf": null}}, {"type": "Feature", "geometry": {"type": "Point", "coordinates": [15.87702, 40.38303]}, "properties": {"nome": "MONTE ENOC 010 OR B FORO 1- 2-3", "anno": 2011, "dec": 2010, "esito": "Olio", "ecls": "olio", "scopo": "Approfondimento", "prof": 3684, "op": "ENI", "prov": "PZ", "tm": "T", "titolo": "VAL D'AGRI", "pdf": null}}, {"type": "Feature", "geometry": {"type": "Point", "coordinates": [15.87702, 40.38106]}, "properties": {"nome": "MONTE ENOC 010 OR-B", "anno": 2011, "dec": 2010, "esito": "Olio", "ecls": "olio", "scopo": "Sviluppo", "prof": 5952, "op": "ENI", "prov": "PZ", "tm": "T", "titolo": "VAL D'AGRI", "pdf": null}}, {"type": "Feature", "geometry": {"type": "Point", "coordinates": [11.06934, 44.62316]}, "properties": {"nome": "MUZZA 005 DIR", "anno": 2011, "dec": 2010, "esito": "Gas", "ecls": "gas", "scopo": "Sviluppo", "prof": 1800, "op": "GAS PLUS ITALIANA", "prov": "MO", "tm": "T", "titolo": "RECOVATO", "pdf": null}}, {"type": "Feature", "geometry": {"type": "Point", "coordinates": [11.94682, 44.4195]}, "properties": {"nome": "SAN POTITO A 001 DIR", "anno": 2011, "dec": 2010, "esito": "Gas", "ecls": "gas", "scopo": "Stratigrafico", "prof": 2159, "op": "EDISON STOCCAGGIO", "prov": "RA", "tm": "T", "titolo": "LONGANESI", "pdf": null}}, {"type": "Feature", "geometry": {"type": "Point", "coordinates": [9.51686, 45.45358]}, "properties": {"nome": "VITALBA 001 DIR A", "anno": 2011, "dec": 2010, "esito": "Gas", "ecls": "gas", "scopo": "Sviluppo", "prof": 1730, "op": "NORTHSUN ITALIA", "prov": "CR", "tm": "T", "titolo": "CASCINA CASTELLO", "pdf": null}}, {"type": "Feature", "geometry": {"type": "Point", "coordinates": [15.86792, 40.38873]}, "properties": {"nome": "VOLTURINO 001 OR B", "anno": 2011, "dec": 2010, "esito": "Olio", "ecls": "olio", "scopo": "Sviluppo", "prof": 3826, "op": "ENI", "prov": "PZ", "tm": "T", "titolo": "VAL D'AGRI", "pdf": null}}, {"type": "Feature", "geometry": {"type": "Point", "coordinates": [13.40744, 44.32186]}, "properties": {"nome": "ANNAMARIA B 007 DIR", "anno": 2010, "dec": 2010, "esito": "Gas", "ecls": "gas", "scopo": "Sviluppo", "prof": 1830, "op": "ENI", "prov": "ZA", "tm": "M", "titolo": "A.C 11.AG", "pdf": null}}, {"type": "Feature", "geometry": {"type": "Point", "coordinates": [13.40752, 44.32186]}, "properties": {"nome": "ANNAMARIA B 010 DIR", "anno": 2010, "dec": 2010, "esito": "Gas", "ecls": "gas", "scopo": "Sviluppo", "prof": 1804, "op": "ENI", "prov": "ZA", "tm": "M", "titolo": "A.C 11.AG", "pdf": null}}, {"type": "Feature", "geometry": {"type": "Point", "coordinates": [13.40747, 44.32186]}, "properties": {"nome": "ANNAMARIA B 011", "anno": 2010, "dec": 2010, "esito": "Non disponibile", "ecls": "altro", "scopo": "Monitoraggio", "prof": 1804, "op": "ENI", "prov": "ZA", "tm": "M", "titolo": "A.C 11.AG", "pdf": null}}, {"type": "Feature", "geometry": {"type": "Point", "coordinates": [13.40747, 44.32183]}, "properties": {"nome": "ANNAMARIA B 015 DIR", "anno": 2010, "dec": 2010, "esito": "Gas", "ecls": "gas", "scopo": "Sviluppo", "prof": 1812, "op": "ENI", "prov": "ZA", "tm": "M", "titolo": "A.C 11.AG", "pdf": null}}, {"type": "Feature", "geometry": {"type": "Point", "coordinates": [13.81729, 44.04956]}, "properties": {"nome": "BARBARA 056 DIR C", "anno": 2010, "dec": 2010, "esito": "Gas", "ecls": "gas", "scopo": "Sviluppo", "prof": 1499, "op": "ENI", "prov": "ZA", "tm": "M", "titolo": "A.C 7.AS", "pdf": null}}, {"type": "Feature", "geometry": {"type": "Point", "coordinates": [13.81727, 44.04952]}, "properties": {"nome": "BARBARA 059 DIR B", "anno": 2010, "dec": 2010, "esito": "Non disponibile", "ecls": "altro", "scopo": "Sviluppo", "prof": 2090, "op": "ENI", "prov": "ZA", "tm": "M", "titolo": "A.C 7.AS", "pdf": null}}, {"type": "Feature", "geometry": {"type": "Point", "coordinates": [13.81725, 44.04951]}, "properties": {"nome": "BARBARA 060 DIR A", "anno": 2010, "dec": 2010, "esito": "Gas", "ecls": "gas", "scopo": "Sviluppo", "prof": 1475, "op": "ENI", "prov": "ZA", "tm": "M", "titolo": "A.C 7.AS", "pdf": null}}, {"type": "Feature", "geometry": {"type": "Point", "coordinates": [13.81725, 44.04957]}, "properties": {"nome": "BARBARA 067 DIR A", "anno": 2010, "dec": 2010, "esito": "Gas", "ecls": "gas", "scopo": "Sviluppo", "prof": 2070, "op": "ENI", "prov": "ZA", "tm": "M", "titolo": "A.C 7.AS", "pdf": null}}, {"type": "Feature", "geometry": {"type": "Point", "coordinates": [13.81719, 44.04952]}, "properties": {"nome": "BARBARA 070 DIR A", "anno": 2010, "dec": 2010, "esito": "Gas", "ecls": "gas", "scopo": "Sviluppo", "prof": 1285, "op": "ENI", "prov": "ZA", "tm": "M", "titolo": "A.C 7.AS", "pdf": null}}, {"type": "Feature", "geometry": {"type": "Point", "coordinates": [13.79166, 44.06322]}, "properties": {"nome": "BARBARA 080 DIR B", "anno": 2010, "dec": 2010, "esito": "Gas", "ecls": "gas", "scopo": "Sviluppo", "prof": 1296, "op": "ENI", "prov": "ZA", "tm": "M", "titolo": "A.C 7.AS", "pdf": null}}, {"type": "Feature", "geometry": {"type": "Point", "coordinates": [13.79164, 44.06326]}, "properties": {"nome": "BARBARA 083 DIR B", "anno": 2010, "dec": 2010, "esito": "Gas", "ecls": "gas", "scopo": "Sviluppo", "prof": 1292, "op": "ENI", "prov": "ZA", "tm": "M", "titolo": "A.C 7.AS", "pdf": null}}, {"type": "Feature", "geometry": {"type": "Point", "coordinates": [13.81723, 44.04949]}, "properties": {"nome": "BARBARA F 061 DIR A", "anno": 2010, "dec": 2010, "esito": "Gas", "ecls": "gas", "scopo": "Sviluppo", "prof": 2028, "op": "ENI", "prov": "ZA", "tm": "M", "titolo": "A.C 7.AS", "pdf": null}}, {"type": "Feature", "geometry": {"type": "Point", "coordinates": [13.64901, 44.10806]}, "properties": {"nome": "BARBARA NORD OVEST 009 DIR", "anno": 2010, "dec": 2010, "esito": "Gas", "ecls": "gas", "scopo": "Sviluppo", "prof": 1553, "op": "ENI", "prov": "ZA", "tm": "M", "titolo": "A.C 7.AS", "pdf": null}}, {"type": "Feature", "geometry": {"type": "Point", "coordinates": [13.64901, 44.10823]}, "properties": {"nome": "BARBARA NORD OVEST 010 DIR", "anno": 2010, "dec": 2010, "esito": "Gas", "ecls": "gas", "scopo": "Sviluppo", "prof": 1544, "op": "ENI", "prov": "ZA", "tm": "M", "titolo": "A.C 7.AS", "pdf": null}}, {"type": "Feature", "geometry": {"type": "Point", "coordinates": [14.43758, 43.57867]}, "properties": {"nome": "BONACCIA EST 002 DIR", "anno": 2010, "dec": 2010, "esito": "Gas", "ecls": "gas", "scopo": "Sviluppo", "prof": 1131, "op": "ENI", "prov": "ZB", "tm": "M", "titolo": "B.C 17.TO", "pdf": null}}, {"type": "Feature", "geometry": {"type": "Point", "coordinates": [14.43758, 43.57861]}, "properties": {"nome": "BONACCIA EST 003 DIR", "anno": 2010, "dec": 2010, "esito": "Gas", "ecls": "gas", "scopo": "Sviluppo", "prof": 1428, "op": "ENI", "prov": "ZA", "tm": "M", "titolo": "B.C 17.TO", "pdf": null}}, {"type": "Feature", "geometry": {"type": "Point", "coordinates": [14.59222, 36.87429]}, "properties": {"nome": "CAMMARANA 001", "anno": 2010, "dec": 2010, "esito": "Non produttivo", "ecls": "sterile", "scopo": "Esplorativo", "prof": 2801, "op": "ENIMED", "prov": "RG", "tm": "T", "titolo": "CASE LA ROCCA", "pdf": null}}, {"type": "Feature", "geometry": {"type": "Point", "coordinates": [13.65358, 43.12331]}, "properties": {"nome": "CAPPARUCCIA 002 DIR A", "anno": 2010, "dec": 2010, "esito": "Non produttivo", "ecls": "sterile", "scopo": "Sviluppo", "prof": 2833, "op": "ADRIATICA IDROCARBURI", "prov": "AP", "tm": "T", "titolo": "CAPPARUCCIA", "pdf": null}}, {"type": "Feature", "geometry": {"type": "Point", "coordinates": [14.68298, 42.03059]}, "properties": {"nome": "CUPELLO 035 DIR", "anno": 2010, "dec": 2010, "esito": "Gas", "ecls": "gas", "scopo": "Stoccaggio", "prof": 1254, "op": "STOGIT", "prov": "CH", "tm": "T", "titolo": "FIUME TRESTE", "pdf": null}}, {"type": "Feature", "geometry": {"type": "Point", "coordinates": [11.04677, 42.94842]}, "properties": {"nome": "FIUME BRUNA 002", "anno": 2010, "dec": 2010, "esito": "Non produttivo", "ecls": "sterile", "scopo": "Esplorativo", "prof": 360, "op": "INDEPENDENT ENERGY SOLUTIONS", "prov": "GR", "tm": "T", "titolo": null, "pdf": null}}, {"type": "Feature", "geometry": {"type": "Point", "coordinates": [16.61433, 40.19925]}, "properties": {"nome": "MASSERIA MORANO 001 DIR", "anno": 2010, "dec": 2010, "esito": "Gas", "ecls": "gas", "scopo": "Esplorativo", "prof": 848, "op": "GAS PLUS ITALIANA", "prov": "MT", "tm": "T", "titolo": "POLICORO", "pdf": null}}, {"type": "Feature", "geometry": {"type": "Point", "coordinates": [11.49876, 44.62049]}, "properties": {"nome": "MINERBIO 085 DIR", "anno": 2010, "dec": 2010, "esito": "Gas", "ecls": "gas", "scopo": "Stoccaggio", "prof": 1649, "op": "STOGIT", "prov": "BO", "tm": "T", "titolo": null, "pdf": null}}, {"type": "Feature", "geometry": {"type": "Point", "coordinates": [15.93319, 40.33537]}, "properties": {"nome": "MONTE ALPI 001 OR B FORO 1-2", "anno": 2010, "dec": 2010, "esito": "Olio", "ecls": "olio", "scopo": "Sviluppo", "prof": 3186, "op": "ENI", "prov": "PZ", "tm": "T", "titolo": "VAL D'AGRI", "pdf": null}}, {"type": "Feature", "geometry": {"type": "Point", "coordinates": [15.93319, 40.33539]}, "properties": {"nome": "MONTE ALPI NORD 001 OR B FORO 1 e 2", "anno": 2010, "dec": 2010, "esito": "Non disponibile", "ecls": "altro", "scopo": "Approfondimento", "prof": 3188, "op": "ENI", "prov": "PZ", "tm": "T", "titolo": "VAL D'AGRI", "pdf": null}}, {"type": "Feature", "geometry": {"type": "Point", "coordinates": [15.23136, 41.50222]}, "properties": {"nome": "MONTESTILLO 022 DIR A", "anno": 2010, "dec": 2010, "esito": "Gas", "ecls": "gas", "scopo": "Sviluppo", "prof": 2064, "op": "ENI", "prov": "FG", "tm": "T", "titolo": "TERTIVERI", "pdf": null}}, {"type": "Feature", "geometry": {"type": "Point", "coordinates": [12.56041, 44.3907]}, "properties": {"nome": "PORTO CORSINI MARE EST 065 DIR A", "anno": 2010, "dec": 2010, "esito": "Gas", "ecls": "gas", "scopo": "Approfondimento", "prof": 3125, "op": "ENI", "prov": "ZA", "tm": "M", "titolo": "PORTO CORSINI MARE", "pdf": null}}, {"type": "Feature", "geometry": {"type": "Point", "coordinates": [12.56041, 44.39066]}, "properties": {"nome": "PORTO CORSINI MARE EST 068 DIR A", "anno": 2010, "dec": 2010, "esito": "Gas", "ecls": "gas", "scopo": "Approfondimento", "prof": 3074, "op": "ENI", "prov": "ZA", "tm": "M", "titolo": "PORTO CORSINI MARE", "pdf": null}}, {"type": "Feature", "geometry": {"type": "Point", "coordinates": [14.72987, 41.99232]}, "properties": {"nome": "S.SALVO 091 OR FORO 3", "anno": 2010, "dec": 2010, "esito": "Gas", "ecls": "gas", "scopo": "Stoccaggio", "prof": 1135, "op": "STOGIT", "prov": "CH", "tm": "T", "titolo": "FIUME TRESTE", "pdf": null}}, {"type": "Feature", "geometry": {"type": "Point", "coordinates": [14.72617, 41.99495]}, "properties": {"nome": "S.SALVO 093 OR", "anno": 2010, "dec": 2010, "esito": "Gas", "ecls": "gas", "scopo": "Stoccaggio", "prof": 1143, "op": "STOGIT", "prov": "CB", "tm": "T", "titolo": "FIUME TRESTE", "pdf": null}}, {"type": "Feature", "geometry": {"type": "Point", "coordinates": [14.72622, 41.99494]}, "properties": {"nome": "S.SALVO 094 OR", "anno": 2010, "dec": 2010, "esito": "Gas", "ecls": "gas", "scopo": "Stoccaggio", "prof": 1130, "op": "STOGIT", "prov": "CB", "tm": "T", "titolo": "FIUME TRESTE", "pdf": null}}, {"type": "Feature", "geometry": {"type": "Point", "coordinates": [11.89624, 44.80311]}, "properties": {"nome": "SABBIONCELLO 051 OR", "anno": 2010, "dec": 2010, "esito": "Gas", "ecls": "gas", "scopo": "Stoccaggio", "prof": 1135, "op": "STOGIT", "prov": "FE", "tm": "T", "titolo": null, "pdf": null}}, {"type": "Feature", "geometry": {"type": "Point", "coordinates": [8.76206, 45.46986]}, "properties": {"nome": "TRECATE 005 DIR A", "anno": 2010, "dec": 2010, "esito": "Non produttivo", "ecls": "sterile", "scopo": "Approfondimento", "prof": 5807, "op": "ENI", "prov": "NO", "tm": "T", "titolo": "VILLAFORTUNA-TRECATE", "pdf": null}}, {"type": "Feature", "geometry": {"type": "Point", "coordinates": [13.11373, 44.17035]}, "properties": {"nome": "ANNALISA 003 DIR B", "anno": 2009, "dec": 2000, "esito": "Gas", "ecls": "gas", "scopo": "Sviluppo", "prof": 2855, "op": "ENI", "prov": "ZA", "tm": "M", "titolo": "A.C 32.AG", "pdf": null}}, {"type": "Feature", "geometry": {"type": "Point", "coordinates": [13.11373, 44.17035]}, "properties": {"nome": "ANNALISA 005 DIR A", "anno": 2009, "dec": 2000, "esito": "Gas", "ecls": "gas", "scopo": "Sviluppo", "prof": 2593, "op": "ENI", "prov": "ZA", "tm": "M", "titolo": "A.C 32.AG", "pdf": null}}, {"type": "Feature", "geometry": {"type": "Point", "coordinates": [13.11375, 44.17033]}, "properties": {"nome": "ANNALISA 006 DIR", "anno": 2009, "dec": 2000, "esito": "Gas", "ecls": "gas", "scopo": "Sviluppo", "prof": 3072, "op": "ENI", "prov": "ZA", "tm": "M", "titolo": "A.C 32.AG", "pdf": null}}, {"type": "Feature", "geometry": {"type": "Point", "coordinates": [13.40742, 44.32188]}, "properties": {"nome": "ANNAMARIA B 006 DIR", "anno": 2009, "dec": 2000, "esito": "Gas", "ecls": "gas", "scopo": "Sviluppo", "prof": 1356, "op": "ENI", "prov": "ZA", "tm": "M", "titolo": "A.C 11.AG", "pdf": null}}, {"type": "Feature", "geometry": {"type": "Point", "coordinates": [13.40746, 44.32188]}, "properties": {"nome": "ANNAMARIA B 008 DIR", "anno": 2009, "dec": 2000, "esito": "Gas", "ecls": "gas", "scopo": "Sviluppo", "prof": 1530, "op": "ENI", "prov": "ZA", "tm": "M", "titolo": "A.C 11.AG", "pdf": null}}, {"type": "Feature", "geometry": {"type": "Point", "coordinates": [13.4075, 44.32188]}, "properties": {"nome": "ANNAMARIA B 009 DIR", "anno": 2009, "dec": 2000, "esito": "Gas", "ecls": "gas", "scopo": "Sviluppo", "prof": 1802, "op": "ENI", "prov": "ZA", "tm": "M", "titolo": "A.C 11.AG", "pdf": null}}, {"type": "Feature", "geometry": {"type": "Point", "coordinates": [12.45367, 44.38942]}, "properties": {"nome": "ANTARES 011 DIR B", "anno": 2009, "dec": 2000, "esito": "Gas", "ecls": "gas", "scopo": "Sviluppo", "prof": 2417, "op": "ENI", "prov": "ZA", "tm": "M", "titolo": "A.C 30.EA", "pdf": null}}, {"type": "Feature", "geometry": {"type": "Point", "coordinates": [12.72006, 44.16665]}, "properties": {"nome": "AZALEA 015 DIR A", "anno": 2009, "dec": 2000, "esito": "Gas", "ecls": "gas", "scopo": "Sviluppo", "prof": 2598, "op": "ENI", "prov": "ZA", "tm": "M", "titolo": "A.C 8.ME", "pdf": null}}, {"type": "Feature", "geometry": {"type": "Point", "coordinates": [13.81727, 44.04955]}, "properties": {"nome": "BARBARA 065 DIR A", "anno": 2009, "dec": 2000, "esito": "Gas", "ecls": "gas", "scopo": "Sviluppo", "prof": 1301, "op": "ENI", "prov": "ZA", "tm": "M", "titolo": "A.C 7.AS", "pdf": null}}, {"type": "Feature", "geometry": {"type": "Point", "coordinates": [13.79164, 44.06323]}, "properties": {"nome": "BARBARA 081 DIR A", "anno": 2009, "dec": 2000, "esito": "Gas", "ecls": "gas", "scopo": "Sviluppo", "prof": 1490, "op": "ENI", "prov": "ZA", "tm": "M", "titolo": "A.C 7.AS", "pdf": null}}, {"type": "Feature", "geometry": {"type": "Point", "coordinates": [13.79162, 44.06325]}, "properties": {"nome": "BARBARA 082 DIR A", "anno": 2009, "dec": 2000, "esito": "Gas", "ecls": "gas", "scopo": "Sviluppo", "prof": 1489, "op": "ENI", "prov": "ZA", "tm": "M", "titolo": "A.C 7.AS", "pdf": null}}, {"type": "Feature", "geometry": {"type": "Point", "coordinates": [13.81729, 44.04954]}, "properties": {"nome": "BARBARA F 058 DIR B", "anno": 2009, "dec": 2000, "esito": "Gas", "ecls": "gas", "scopo": "Sviluppo", "prof": 1296, "op": "ENI", "prov": "ZA", "tm": "M", "titolo": "A.C 7.AS", "pdf": null}}, {"type": "Feature", "geometry": {"type": "Point", "coordinates": [13.81721, 44.04951]}, "properties": {"nome": "BARBARA F 062 DIR A", "anno": 2009, "dec": 2000, "esito": "Gas", "ecls": "gas", "scopo": "Sviluppo", "prof": 1476, "op": "ENI", "prov": "ZA", "tm": "M", "titolo": "A.C 7.AS", "pdf": null}}, {"type": "Feature", "geometry": {"type": "Point", "coordinates": [13.79166, 44.06324]}, "properties": {"nome": "BARBARA G 079 DIR B", "anno": 2009, "dec": 2000, "esito": "Gas", "ecls": "gas", "scopo": "Sviluppo", "prof": 1481, "op": "ENI", "prov": "ZA", "tm": "M", "titolo": "A.C 7.AS", "pdf": null}}, {"type": "Feature", "geometry": {"type": "Point", "coordinates": [10.65539, 44.27]}, "properties": {"nome": "BARIGAZZO 007", "anno": 2009, "dec": 2000, "esito": "Gas", "ecls": "gas", "scopo": "Sviluppo", "prof": 494, "op": "SIAM", "prov": "MO", "tm": "T", "titolo": "BARIGAZZO", "pdf": null}}, {"type": "Feature", "geometry": {"type": "Point", "coordinates": [9.467, 45.41572]}, "properties": {"nome": "BEZZECCA 001", "anno": 2009, "dec": 2000, "esito": "Gas", "ecls": "gas", "scopo": "Esplorativo", "prof": 2006, "op": "NORTHSUN ITALIA", "prov": "LO", "tm": "T", "titolo": "CASCINA CASTELLO", "pdf": null}}, {"type": "Feature", "geometry": {"type": "Point", "coordinates": [13.87027, 42.59826]}, "properties": {"nome": "CELLINO 025 STO", "anno": 2009, "dec": 2000, "esito": "Non disponibile", "ecls": "altro", "scopo": "Stoccaggio", "prof": 1025, "op": "EDISON STOCCAGGIO", "prov": "TE", "tm": "T", "titolo": null, "pdf": null}}, {"type": "Feature", "geometry": {"type": "Point", "coordinates": [15.79925, 40.43661]}, "properties": {"nome": "CERRO FALCONE 002 X OR C", "anno": 2009, "dec": 2000, "esito": "Olio", "ecls": "olio", "scopo": "Sviluppo", "prof": 3889, "op": "ENI", "prov": "PZ", "tm": "T", "titolo": "VAL D'AGRI", "pdf": null}}, {"type": "Feature", "geometry": {"type": "Point", "coordinates": [15.78403, 40.47109]}, "properties": {"nome": "CERRO FALCONE 004 OR", "anno": 2009, "dec": 2000, "esito": "Olio", "ecls": "olio", "scopo": "Sviluppo", "prof": 3900, "op": "ENI", "prov": "PZ", "tm": "T", "titolo": "VAL D'AGRI", "pdf": null}}, {"type": "Feature", "geometry": {"type": "Point", "coordinates": [15.78403, 40.47109]}, "properties": {"nome": "CERRO FALCONE 004 OR A", "anno": 2009, "dec": 2000, "esito": "Olio", "ecls": "olio", "scopo": "Sviluppo", "prof": 3851, "op": "ENI", "prov": "PZ", "tm": "T", "titolo": "VAL D'AGRI", "pdf": null}}, {"type": "Feature", "geometry": {"type": "Point", "coordinates": [12.64564, 44.28817]}, "properties": {"nome": "CERVIA B 022 DIR A 1°/ 3° FORO", "anno": 2009, "dec": 2000, "esito": "Gas", "ecls": "gas", "scopo": "Sviluppo", "prof": 3249, "op": "ENI", "prov": "ZA", "tm": "M", "titolo": "CERVIA MARE", "pdf": null}}, {"type": "Feature", "geometry": {"type": "Point", "coordinates": [12.64569, 44.28819]}, "properties": {"nome": "CERVIA B 024 DIR A", "anno": 2009, "dec": 2000, "esito": "Gas", "ecls": "gas", "scopo": "Sviluppo", "prof": 1551, "op": "ENI", "prov": "ZA", "tm": "M", "titolo": "CERVIA MARE", "pdf": null}}, {"type": "Feature", "geometry": {"type": "Point", "coordinates": [12.64564, 44.28817]}, "properties": {"nome": "CERVIA MARE 024 DIR A", "anno": 2009, "dec": 2000, "esito": "Gas", "ecls": "gas", "scopo": "Sviluppo", "prof": 1815, "op": "AGIP", "prov": "ZA", "tm": "M", "titolo": "CERVIA MARE", "pdf": null}}, {"type": "Feature", "geometry": {"type": "Point", "coordinates": [14.66322, 42.04027]}, "properties": {"nome": "CUPELLO 031 DIR", "anno": 2009, "dec": 2000, "esito": "Gas", "ecls": "gas", "scopo": "Stoccaggio", "prof": 1406, "op": "STOGIT", "prov": "CH", "tm": "T", "titolo": "FIUME TRESTE", "pdf": null}}, {"type": "Feature", "geometry": {"type": "Point", "coordinates": [14.66325, 42.04024]}, "properties": {"nome": "CUPELLO 032 DIR", "anno": 2009, "dec": 2000, "esito": "Incidentato e/o sospeso", "ecls": "altro", "scopo": "Stoccaggio", "prof": 1482, "op": "STOGIT", "prov": "CH", "tm": "T", "titolo": "FIUME TRESTE", "pdf": null}}, {"type": "Feature", "geometry": {"type": "Point", "coordinates": [14.66325, 42.04024]}, "properties": {"nome": "CUPELLO 032 DIR A", "anno": 2009, "dec": 2000, "esito": "Gas", "ecls": "gas", "scopo": "Stoccaggio", "prof": 1443, "op": "STOGIT", "prov": "CH", "tm": "T", "titolo": "FIUME TRESTE", "pdf": null}}, {"type": "Feature", "geometry": {"type": "Point", "coordinates": [14.66328, 42.04022]}, "properties": {"nome": "CUPELLO 033 DIR", "anno": 2009, "dec": 2000, "esito": "Gas", "ecls": "gas", "scopo": "Stoccaggio", "prof": 1447, "op": "STOGIT", "prov": "CH", "tm": "T", "titolo": "FIUME TRESTE", "pdf": null}}, {"type": "Feature", "geometry": {"type": "Point", "coordinates": [14.68302, 42.03061]}, "properties": {"nome": "CUPELLO 034 DIR", "anno": 2009, "dec": 2000, "esito": "Gas", "ecls": "gas", "scopo": "Stoccaggio", "prof": 1245, "op": "STOGIT", "prov": "CH", "tm": "T", "titolo": "FIUME TRESTE", "pdf": null}}, {"type": "Feature", "geometry": {"type": "Point", "coordinates": [11.07739, 42.92914]}, "properties": {"nome": "FIUME BRUNA 001", "anno": 2009, "dec": 2000, "esito": "Non produttivo", "ecls": "sterile", "scopo": "Esplorativo", "prof": 913, "op": "INDEPENDENT ENERGY SOLUTIONS", "prov": "GR", "tm": "T", "titolo": null, "pdf": null}}, {"type": "Feature", "geometry": {"type": "Point", "coordinates": [14.60715, 42.07494]}, "properties": {"nome": "FURCI 010 OR", "anno": 2009, "dec": 2000, "esito": "Gas", "ecls": "gas", "scopo": "Stoccaggio", "prof": 1182, "op": "STOGIT", "prov": "CH", "tm": "T", "titolo": "FIUME TRESTE", "pdf": null}}, {"type": "Feature", "geometry": {"type": "Point", "coordinates": [14.6072, 42.07496]}, "properties": {"nome": "FURCI 011 OR", "anno": 2009, "dec": 2000, "esito": "Gas", "ecls": "gas", "scopo": "Stoccaggio", "prof": 1198, "op": "STOGIT", "prov": "CH", "tm": "T", "titolo": "FIUME TRESTE", "pdf": null}}, {"type": "Feature", "geometry": {"type": "Point", "coordinates": [14.63143, 42.05399]}, "properties": {"nome": "FURCI 012 0R", "anno": 2009, "dec": 2000, "esito": "Gas", "ecls": "gas", "scopo": "Stoccaggio", "prof": 1179, "op": "STOGIT", "prov": "CH", "tm": "T", "titolo": "FIUME TRESTE", "pdf": null}}, {"type": "Feature", "geometry": {"type": "Point", "coordinates": [14.63143, 42.05394]}, "properties": {"nome": "FURCI 013 OR", "anno": 2009, "dec": 2000, "esito": "Gas", "ecls": "gas", "scopo": "Stoccaggio", "prof": 1170, "op": "STOGIT", "prov": "CH", "tm": "T", "titolo": "FIUME TRESTE", "pdf": null}}, {"type": "Feature", "geometry": {"type": "Point", "coordinates": [14.61466, 42.06616]}, "properties": {"nome": "FURCI 014 OR SECONDO FORO", "anno": 2009, "dec": 2000, "esito": "Gas", "ecls": "gas", "scopo": "Stoccaggio", "prof": 1298, "op": "STOGIT", "prov": "CH", "tm": "T", "titolo": "FIUME TRESTE", "pdf": null}}, {"type": "Feature", "geometry": {"type": "Point", "coordinates": [14.6146, 42.06616]}, "properties": {"nome": "FURCI 015 OR", "anno": 2009, "dec": 2000, "esito": "Gas", "ecls": "gas", "scopo": "Stoccaggio", "prof": 1277, "op": "STOGIT", "prov": "CH", "tm": "T", "titolo": "FIUME TRESTE", "pdf": null}}, {"type": "Feature", "geometry": {"type": "Point", "coordinates": [14.65115, 42.04754]}, "properties": {"nome": "FURCI 016 OR - 016 OR A", "anno": 2009, "dec": 2000, "esito": "Gas", "ecls": "gas", "scopo": "Stoccaggio", "prof": 1418, "op": "STOGIT", "prov": "CH", "tm": "T", "titolo": "FIUME TRESTE", "pdf": null}}, {"type": "Feature", "geometry": {"type": "Point", "coordinates": [14.65111, 42.04751]}, "properties": {"nome": "FURCI 017 OR", "anno": 2009, "dec": 2000, "esito": "Gas", "ecls": "gas", "scopo": "Stoccaggio", "prof": 1420, "op": "STOGIT", "prov": "CH", "tm": "T", "titolo": "FIUME TRESTE", "pdf": null}}, {"type": "Feature", "geometry": {"type": "Point", "coordinates": [11.0065, 44.20389]}, "properties": {"nome": "GAGGIOLA 203", "anno": 2009, "dec": 2000, "esito": "Gas", "ecls": "gas", "scopo": "Sviluppo", "prof": 436, "op": "LAZZI GAS", "prov": "BO", "tm": "T", "titolo": "GAGGIOLA", "pdf": null}}, {"type": "Feature", "geometry": {"type": "Point", "coordinates": [10.75833, 44.70425]}, "properties": {"nome": "GAZZATA 001", "anno": 2009, "dec": 2000, "esito": "Non produttivo", "ecls": "sterile", "scopo": "Esplorativo", "prof": 1764, "op": "ASCENT RESOURSES ITALIA", "prov": "RE", "tm": "T", "titolo": null, "pdf": null}}, {"type": "Feature", "geometry": {"type": "Point", "coordinates": [14.46406, 42.76731]}, "properties": {"nome": "GIOVANNA 013 DIR A", "anno": 2009, "dec": 2000, "esito": "Gas", "ecls": "gas", "scopo": "Sviluppo", "prof": null, "op": "AGIP", "prov": "ZB", "tm": "M", "titolo": "B.C 10.AS", "pdf": null}}, {"type": "Feature", "geometry": {"type": "Point", "coordinates": [17.18169, 39.11639]}, "properties": {"nome": "LUNA 008 BIS DIR/DIR A", "anno": 2009, "dec": 2000, "esito": "Gas", "ecls": "gas", "scopo": "Sviluppo", "prof": 2260, "op": "AGIP", "prov": "ZD", "tm": "M", "titolo": "D.C 1.AG", "pdf": null}}, {"type": "Feature", "geometry": {"type": "Point", "coordinates": [16.70331, 40.34994]}, "properties": {"nome": "METAPONTO 001 DIR A", "anno": 2009, "dec": 2000, "esito": "Non disponibile", "ecls": "altro", "scopo": "Approfondimento", "prof": 1458, "op": "GAS PLUS ITALIANA", "prov": "MT", "tm": "T", "titolo": "IL SALICE", "pdf": null}}, {"type": "Feature", "geometry": {"type": "Point", "coordinates": [15.93321, 40.33542]}, "properties": {"nome": "MONTE ENOC 003 OR A FORO 1-2", "anno": 2009, "dec": 2000, "esito": "Olio", "ecls": "olio", "scopo": "Sviluppo", "prof": 3404, "op": "ENI", "prov": "PZ", "tm": "T", "titolo": "VAL D'AGRI", "pdf": null}}, {"type": "Feature", "geometry": {"type": "Point", "coordinates": [11.81774, 44.47311]}, "properties": {"nome": "OPPIO 001", "anno": 2009, "dec": 2000, "esito": "Non produttivo", "ecls": "sterile", "scopo": "Esplorativo", "prof": 2950, "op": "FOREST - CMI", "prov": "RA", "tm": "T", "titolo": null, "pdf": null}}, {"type": "Feature", "geometry": {"type": "Point", "coordinates": [14.71157, 42.00518]}, "properties": {"nome": "S.SALVO 080 OR", "anno": 2009, "dec": 2000, "esito": "Gas", "ecls": "gas", "scopo": "Stoccaggio", "prof": 1141, "op": "STOGIT", "prov": "CH", "tm": "T", "titolo": "FIUME TRESTE", "pdf": null}}, {"type": "Feature", "geometry": {"type": "Point", "coordinates": [14.71864, 41.99672]}, "properties": {"nome": "S.SALVO 087 OR A", "anno": 2009, "dec": 2000, "esito": "Gas", "ecls": "gas", "scopo": "Stoccaggio", "prof": 1157, "op": "STOGIT", "prov": "CH", "tm": "T", "titolo": "FIUME TRESTE", "pdf": null}}, {"type": "Feature", "geometry": {"type": "Point", "coordinates": [14.7186, 41.99676]}, "properties": {"nome": "S.SALVO 088 DIR A", "anno": 2009, "dec": 2000, "esito": "Gas", "ecls": "gas", "scopo": "Stoccaggio", "prof": 1190, "op": "STOGIT", "prov": "CH", "tm": "T", "titolo": "FIUME TRESTE", "pdf": null}}, {"type": "Feature", "geometry": {"type": "Point", "coordinates": [14.72999, 41.99232]}, "properties": {"nome": "S.SALVO 089 DIR", "anno": 2009, "dec": 2000, "esito": "Gas", "ecls": "gas", "scopo": "Stoccaggio", "prof": 1223, "op": "STOGIT", "prov": "CH", "tm": "T", "titolo": "FIUME TRESTE", "pdf": null}}, {"type": "Feature", "geometry": {"type": "Point", "coordinates": [14.72993, 41.99232]}, "properties": {"nome": "S.SALVO 090 OR", "anno": 2009, "dec": 2000, "esito": "Non disponibile", "ecls": "altro", "scopo": "Stoccaggio", "prof": 1507, "op": "STOGIT", "prov": "CH", "tm": "T", "titolo": "FIUME TRESTE", "pdf": null}}, {"type": "Feature", "geometry": {"type": "Point", "coordinates": [14.72611, 41.99497]}, "properties": {"nome": "S.SALVO 092 DIR", "anno": 2009, "dec": 2000, "esito": "Non produttivo", "ecls": "sterile", "scopo": "Stoccaggio", "prof": 1226, "op": "STOGIT", "prov": "CB", "tm": "T", "titolo": "FIUME TRESTE", "pdf": null}}, {"type": "Feature", "geometry": {"type": "Point", "coordinates": [14.72611, 41.99497]}, "properties": {"nome": "S.SALVO 092 DIR A FORO 2", "anno": 2009, "dec": 2000, "esito": "Gas", "ecls": "gas", "scopo": "Stoccaggio", "prof": 1205, "op": "STOGIT", "prov": "CB", "tm": "T", "titolo": "FIUME TRESTE", "pdf": null}}, {"type": "Feature", "geometry": {"type": "Point", "coordinates": [12.14019, 44.30639]}, "properties": {"nome": "SAVIO 001", "anno": 2009, "dec": 2000, "esito": "Non produttivo", "ecls": "sterile", "scopo": "Esplorativo", "prof": 3720, "op": "NORTHERN PETROLEUM LIMITED", "prov": "RA", "tm": "T", "titolo": null, "pdf": "https://www.videpi.com/deposito/pozzi/profili/pdf/savio_001.pdf"}}, {"type": "Feature", "geometry": {"type": "Point", "coordinates": [11.69694, 44.49295]}, "properties": {"nome": "SILLARO 002 DIR", "anno": 2009, "dec": 2000, "esito": "Gas", "ecls": "gas", "scopo": "Sviluppo", "prof": 2359, "op": "NORTHSUN ITALIA", "prov": "BO", "tm": "T", "titolo": "SILLARO", "pdf": null}}, {"type": "Feature", "geometry": {"type": "Point", "coordinates": [8.73465, 45.48431]}, "properties": {"nome": "VILLAFORTUNA 001 BIS DIR A", "anno": 2009, "dec": 2000, "esito": "Olio", "ecls": "olio", "scopo": "Sviluppo", "prof": 6097, "op": "ENI", "prov": "NO", "tm": "T", "titolo": "VILLAFORTUNA-TRECATE", "pdf": null}}, {"type": "Feature", "geometry": {"type": "Point", "coordinates": [12.45369, 44.38942]}, "properties": {"nome": "ANTARES 005 DIR A", "anno": 2008, "dec": 2000, "esito": "Gas", "ecls": "gas", "scopo": "Sviluppo", "prof": 2318, "op": "ENI", "prov": "ZA", "tm": "M", "titolo": "A.C 30.EA", "pdf": null}}, {"type": "Feature", "geometry": {"type": "Point", "coordinates": [12.45362, 44.38919]}, "properties": {"nome": "ANTARES 006 DIR A", "anno": 2008, "dec": 2000, "esito": "Gas", "ecls": "gas", "scopo": "Esplorativo", "prof": 2412, "op": "ENI", "prov": "ZA", "tm": "M", "titolo": "A.C 30.EA", "pdf": null}}, {"type": "Feature", "geometry": {"type": "Point", "coordinates": [12.45372, 44.38942]}, "properties": {"nome": "ANTARES 010 DIR B", "anno": 2008, "dec": 2000, "esito": "Gas", "ecls": "gas", "scopo": "Sviluppo", "prof": 2389, "op": "ENI", "prov": "ZA", "tm": "M", "titolo": "A.C 30.EA", "pdf": null}}, {"type": "Feature", "geometry": {"type": "Point", "coordinates": [13.80544, 36.92606]}, "properties": {"nome": "ARGO 002", "anno": 2008, "dec": 2000, "esito": "Gas", "ecls": "gas", "scopo": "Esplorativo", "prof": 1835, "op": "ENI", "prov": "ZG", "tm": "M", "titolo": "G.C 1.AG", "pdf": null}}, {"type": "Feature", "geometry": {"type": "Point", "coordinates": [9.90586, 45.40248]}, "properties": {"nome": "BARCO 001 DIR", "anno": 2008, "dec": 2000, "esito": "Non produttivo", "ecls": "sterile", "scopo": "Esplorativo", "prof": 1804, "op": "ENI", "prov": "BS", "tm": "T", "titolo": "CORZANO", "pdf": "https://www.videpi.com/deposito/pozzi/profili/pdf/barco_001_dir.pdf"}}, {"type": "Feature", "geometry": {"type": "Point", "coordinates": [9.37345, 45.43481]}, "properties": {"nome": "CALEPPIO 001 DIR A", "anno": 2008, "dec": 2000, "esito": "Gas", "ecls": "gas", "scopo": "Stoccaggio", "prof": 1843, "op": "STOGIT", "prov": "MI", "tm": "T", "titolo": "SETTALA", "pdf": null}}, {"type": "Feature", "geometry": {"type": "Point", "coordinates": [8.73144, 45.45503]}, "properties": {"nome": "CASCINA CARDANA 001 DIR A", "anno": 2008, "dec": 2000, "esito": "Olio", "ecls": "olio", "scopo": "Sviluppo", "prof": 6113, "op": "ENI", "prov": "NO", "tm": "T", "titolo": "VILLAFORTUNA-TRECATE", "pdf": null}}, {"type": "Feature", "geometry": {"type": "Point", "coordinates": [13.73262, 36.93664]}, "properties": {"nome": "CASSIOPEA 001 DIR", "anno": 2008, "dec": 2000, "esito": "Gas", "ecls": "gas", "scopo": "Esplorativo", "prof": 2123, "op": "ENI", "prov": "ZG", "tm": "M", "titolo": "G.C 1.AG", "pdf": null}}, {"type": "Feature", "geometry": {"type": "Point", "coordinates": [12.64566, 44.28816]}, "properties": {"nome": "CERVIA B 020 DIR A", "anno": 2008, "dec": 2000, "esito": "Gas", "ecls": "gas", "scopo": "Sviluppo", "prof": 2229, "op": "ENI", "prov": "ZA", "tm": "M", "titolo": "CERVIA MARE", "pdf": null}}, {"type": "Feature", "geometry": {"type": "Point", "coordinates": [12.64568, 44.28817]}, "properties": {"nome": "CERVIA B 021 DIR A", "anno": 2008, "dec": 2000, "esito": "Gas", "ecls": "gas", "scopo": "Sviluppo", "prof": 3252, "op": "ENI", "prov": "ZA", "tm": "M", "titolo": "CERVIA MARE", "pdf": null}}, {"type": "Feature", "geometry": {"type": "Point", "coordinates": [12.64564, 44.28817]}, "properties": {"nome": "CERVIA MARE 019 DIR A", "anno": 2008, "dec": 2000, "esito": "Gas", "ecls": "gas", "scopo": "Sviluppo", "prof": 2162, "op": "AGIP", "prov": "ZA", "tm": "M", "titolo": "CERVIA MARE", "pdf": null}}, {"type": "Feature", "geometry": {"type": "Point", "coordinates": [12.64564, 44.28817]}, "properties": {"nome": "CERVIA MARE 020 DIR A", "anno": 2008, "dec": 2000, "esito": "Gas", "ecls": "gas", "scopo": "Sviluppo", "prof": 3627, "op": "AGIP", "prov": "ZA", "tm": "M", "titolo": "CERVIA MARE", "pdf": null}}, {"type": "Feature", "geometry": {"type": "Point", "coordinates": [12.41039, 44.1514]}, "properties": {"nome": "CGRA 1", "anno": 2008, "dec": 2000, "esito": "Non produttivo", "ecls": "sterile", "scopo": "Monitoraggio", "prof": 320, "op": "ENI", "prov": "RN", "tm": "T", "titolo": null, "pdf": null}}, {"type": "Feature", "geometry": {"type": "Point", "coordinates": [9.97602, 44.99619]}, "properties": {"nome": "CORTEMAGGIORE 156 OR", "anno": 2008, "dec": 2000, "esito": "Gas", "ecls": "gas", "scopo": "Stoccaggio", "prof": 1537, "op": "STOGIT", "prov": "PC", "tm": "T", "titolo": "CORTEMAGGIORE", "pdf": null}}, {"type": "Feature", "geometry": {"type": "Point", "coordinates": [14.67787, 42.02332]}, "properties": {"nome": "CUPELLO 029 DIR", "anno": 2008, "dec": 2000, "esito": "Gas", "ecls": "gas", "scopo": "Stoccaggio", "prof": 1238, "op": "STOGIT", "prov": "CH", "tm": "T", "titolo": "FIUME TRESTE", "pdf": null}}, {"type": "Feature", "geometry": {"type": "Point", "coordinates": [14.67781, 42.02334]}, "properties": {"nome": "CUPELLO 030 DIR", "anno": 2008, "dec": 2000, "esito": "Gas", "ecls": "gas", "scopo": "Stoccaggio", "prof": 1238, "op": "STOGIT", "prov": "CH", "tm": "T", "titolo": "FIUME TRESTE", "pdf": null}}, {"type": "Feature", "geometry": {"type": "Point", "coordinates": [14.37933, 42.80781]},